{
  "version": 0.6,
  "generator": "Overpass API 0.7.62.11 87bfad18",
  "osm3s": {
    "timestamp_osm_base": "2026-06-13T05:55:12Z",
    "copyright": "The data included in this document is from www.openstreetmap.org. The data is made available under ODbL."
  },
  "elements": [

{
  "type": "node",
  "id": 307511109,
  "lat": 9.3639990,
  "lon": 76.5925769,
  "tags": {
    "addr:district": "Pathanamthitta",
    "addr:full": "Thirumoolapuram",
    "addr:postcode": "689115",
    "addr:state": "Kerala",
    "amenity": "hospital",
    "name": "Aravind Ayurvedic Hospital",
    "source": "Local Knowledge"
  }
},
{
  "type": "node",
  "id": 425213471,
  "lat": 9.4219757,
  "lon": 76.6190575,
  "tags": {
    "amenity": "place_of_worship",
    "church": "Church of South India",
    "denomination": "united",
    "name": "St Stephen's Church, Mundiappally",
    "religion": "christian"
  }
},
{
  "type": "node",
  "id": 425279093,
  "lat": 9.3963866,
  "lon": 76.6106718,
  "tags": {
    "amenity": "place_of_worship",
    "name": "Kaviyoor Temple",
    "religion": "hindu"
  }
},
{
  "type": "node",
  "id": 622250802,
  "lat": 9.3852283,
  "lon": 76.6153372,
  "tags": {
    "amenity": "hospital",
    "emergency": "yes",
    "name": "Thottabhagam Hospital"
  }
},
{
  "type": "node",
  "id": 622250917,
  "lat": 9.3999700,
  "lon": 76.6124672,
  "tags": {
    "addr:city": "Kaviyoor",
    "amenity": "school",
    "name": "NSS High School"
  }
},
{
  "type": "node",
  "id": 622250945,
  "lat": 9.4049236,
  "lon": 76.6086091,
  "tags": {
    "amenity": "place_of_worship",
    "church": "Church of South India",
    "denomination": "united",
    "name": "Christ Church",
    "religion": "christian"
  }
},
{
  "type": "node",
  "id": 622250966,
  "lat": 9.3974402,
  "lon": 76.6022796,
  "tags": {
    "amenity": "place_of_worship",
    "denomination": "marthoma",
    "name": "Kaviyoor Valiya Palli",
    "religion": "christian"
  }
},
{
  "type": "node",
  "id": 675546475,
  "lat": 9.7088081,
  "lon": 76.6765231,
  "tags": {
    "amenity": "hospital",
    "name": "Alphonsa Eye Hospital"
  }
},
{
  "type": "node",
  "id": 675546479,
  "lat": 9.7130055,
  "lon": 76.6828742,
  "tags": {
    "amenity": "place_of_worship",
    "denomination": "catholic",
    "name": "Pala Kurisupally",
    "name:en": "Pala Kurisupally",
    "name:ml": "പാലാ കുരിശുപള്ളി",
    "religion": "christian"
  }
},
{
  "type": "node",
  "id": 690414609,
  "lat": 9.7114550,
  "lon": 76.6809641,
  "tags": {
    "addr:district": "Kottayam",
    "addr:full": "Pala",
    "addr:postcode": "686575",
    "addr:state": "Kerala",
    "amenity": "hospital",
    "building": "hospital",
    "emergency": "yes",
    "healthcare": "hospital",
    "is_in": "Pala",
    "name": "General Hospital",
    "name:en": "General Hospital",
    "name:ml": "പാലാ ജനറൽ ആശുപത്രി",
    "operator": "DEPARTMENT OF HEALTH SERVICES",
    "operator:type": "government",
    "source": "OpenGovernmentData"
  }
},
{
  "type": "node",
  "id": 690417022,
  "lat": 9.7103126,
  "lon": 76.6790678,
  "tags": {
    "amenity": "school",
    "name": "St. Thomas Higher Secondary School Pala",
    "name:en": "St. Thomas High School Pala",
    "name:ml": "സെന്റ് തോമസ് ഹൈസ്കൂൾ"
  }
},
{
  "type": "node",
  "id": 705156739,
  "lat": 9.7030554,
  "lon": 76.7217038,
  "tags": {
    "amenity": "place_of_worship",
    "denomination": "catholic",
    "name": "St. Marys Forona Church & St. Sr. Alphonsa's Tomb",
    "religion": "christian"
  }
},
{
  "type": "node",
  "id": 836073701,
  "lat": 9.7144002,
  "lon": 76.6818969,
  "tags": {
    "amenity": "place_of_worship",
    "denomination": "catholic",
    "name": "St. Mary's (Lalam) church",
    "religion": "christian"
  }
},
{
  "type": "node",
  "id": 836113240,
  "lat": 9.7117351,
  "lon": 76.6813947,
  "tags": {
    "amenity": "hospital",
    "emergency": "yes",
    "healthcare": "hospital",
    "name": "Christuraj Hospital"
  }
},
{
  "type": "node",
  "id": 951385364,
  "lat": 9.7194718,
  "lon": 76.6540274,
  "tags": {
    "amenity": "place_of_worship",
    "denomination": "catholic",
    "name": "Paingulam Church",
    "religion": "christian"
  }
},
{
  "type": "node",
  "id": 997571938,
  "lat": 9.6864571,
  "lon": 76.6417333,
  "tags": {
    "amenity": "place_of_worship",
    "denomination": "catholic",
    "name": "Cherpunkal Church",
    "religion": "christian"
  }
},
{
  "type": "node",
  "id": 997575961,
  "lat": 9.6992774,
  "lon": 76.6521799,
  "tags": {
    "amenity": "school",
    "name": "Technical School Pala"
  }
},
{
  "type": "node",
  "id": 997575962,
  "lat": 9.6834087,
  "lon": 76.6117672,
  "tags": {
    "amenity": "hospital",
    "emergency": "yes",
    "healthcare": "hospital",
    "name": "Little Lourdes Hospital Kidangoor",
    "operator": "Visitation Congregation of the Catholic Archdiocese of Kottayam",
    "operator:type": "private"
  }
},
{
  "type": "node",
  "id": 1026157949,
  "lat": 9.7142122,
  "lon": 76.6799066,
  "tags": {
    "addr:city": "Pala",
    "addr:postcode": "686575",
    "addr:street": "Lalam Puthen Palli Road",
    "amenity": "place_of_worship",
    "denomination": "catholic",
    "name": "Mar Aprem Seminary",
    "name:en": "Mar Aprem Seminary",
    "name:ml": "മാർ അപ്രേം സെമിനാരി",
    "religion": "christian"
  }
},
{
  "type": "node",
  "id": 1029784929,
  "lat": 9.6562608,
  "lon": 76.5690960,
  "tags": {
    "amenity": "college",
    "name": "Department of Pharmaceutical Sciences, CPAS"
  }
},
{
  "type": "node",
  "id": 1038098433,
  "lat": 9.7001486,
  "lon": 76.7260802,
  "tags": {
    "amenity": "school",
    "check_date": "2025-02-16",
    "name": "Sacred Heart Girl's Higher Secondary School"
  }
},
{
  "type": "node",
  "id": 1038098434,
  "lat": 9.7016835,
  "lon": 76.7261419,
  "tags": {
    "amenity": "school",
    "check_date": "2025-02-16",
    "name": "St. Mary's Boys' HSS"
  }
},
{
  "type": "node",
  "id": 1143532125,
  "lat": 9.6359693,
  "lon": 76.7310020,
  "tags": {
    "amenity": "school",
    "name": "Kuruvikkoodu LP School"
  }
},
{
  "type": "node",
  "id": 1143601347,
  "lat": 9.7030767,
  "lon": 76.7260935,
  "tags": {
    "amenity": "place_of_worship",
    "denomination": "catholic",
    "name": "Tomb of St. Alphonsa",
    "religion": "christian"
  }
},
{
  "type": "node",
  "id": 1143832510,
  "lat": 9.7183188,
  "lon": 76.6885806,
  "tags": {
    "addr:city": "pala",
    "addr:postcode": "686575",
    "amenity": "place_of_worship",
    "denomination": "roman_catholic",
    "name": "St. Jude's Kizhathadiyoor Pilgrim CHurch",
    "religion": "christian"
  }
},
{
  "type": "node",
  "id": 1472937218,
  "lat": 9.4988308,
  "lon": 76.3304218,
  "tags": {
    "addr:block": "Alappuzha",
    "addr:district": "Alappuzha",
    "addr:postcode": "688001",
    "addr:village": "Mullakkal",
    "amenity": "school",
    "name": "St. Joseph's Higher Secondary School For Girls"
  }
},
{
  "type": "node",
  "id": 1473134118,
  "lat": 9.5053603,
  "lon": 76.3418646,
  "tags": {
    "addr:city": "Alappuzha",
    "addr:district": "Alappuzha",
    "addr:full": "Thathampally",
    "addr:postcode": "688013",
    "addr:state": "Kerala",
    "amenity": "hospital",
    "healthcare": "hospital",
    "name": "Sahrudaya Hospital",
    "source": "OpenGovernmentData"
  }
},
{
  "type": "node",
  "id": 1474029595,
  "lat": 9.4840482,
  "lon": 76.3319188,
  "tags": {
    "amenity": "place_of_worship",
    "name": "Alishery Temple",
    "religion": "hindu"
  }
},
{
  "type": "node",
  "id": 1474273349,
  "lat": 9.4346837,
  "lon": 76.3503610,
  "tags": {
    "amenity": "place_of_worship",
    "name": "Badra Devi Temple, Punnapra",
    "religion": "hindu"
  }
},
{
  "type": "node",
  "id": 1736131051,
  "lat": 9.7195497,
  "lon": 76.6541762,
  "tags": {
    "amenity": "place_of_worship",
    "denomination": "catholic",
    "religion": "christian",
    "source": "Bing"
  }
},
{
  "type": "node",
  "id": 1861982053,
  "lat": 9.3775904,
  "lon": 76.5092631,
  "tags": {
    "amenity": "place_of_worship",
    "denomination": "pentecostal",
    "designation": "Church of God",
    "name": "Church of God, Thalavady",
    "religion": "christian",
    "source": "Local Knowledge"
  }
},
{
  "type": "node",
  "id": 1861982059,
  "lat": 9.3732926,
  "lon": 76.5105184,
  "tags": {
    "amenity": "school",
    "name": "St. Thomas Higher Secondary School"
  }
},
{
  "type": "node",
  "id": 1861982063,
  "lat": 9.3736525,
  "lon": 76.5120741,
  "tags": {
    "amenity": "school",
    "name": "T.M.T. High School, Thalavady",
    "wikidata": "Q87479501"
  }
},
{
  "type": "node",
  "id": 1861982086,
  "lat": 9.3717524,
  "lon": 76.5199544,
  "tags": {
    "amenity": "place_of_worship",
    "denomination": "pentecostal",
    "designation": "IPC",
    "name": "IPC Church",
    "religion": "christian",
    "source": "Local Knowledge"
  }
},
{
  "type": "node",
  "id": 1861982092,
  "lat": 9.3886731,
  "lon": 76.5111943,
  "tags": {
    "amenity": "school",
    "name": "St. George's High School"
  }
},
{
  "type": "node",
  "id": 1925327050,
  "lat": 9.3294845,
  "lon": 76.6444365,
  "tags": {
    "amenity": "place_of_worship",
    "denomination": "indian_orthodox",
    "name": "St. Marys Orthodox Syrian Church",
    "religion": "christian"
  }
},
{
  "type": "node",
  "id": 1925346133,
  "lat": 9.3166668,
  "lon": 76.6175713,
  "tags": {
    "amenity": "place_of_worship",
    "denomination": "Church of South India",
    "name": "St.Andrews CSI Church",
    "religion": "christian"
  }
},
{
  "type": "node",
  "id": 1925347522,
  "lat": 9.3164958,
  "lon": 76.6169274,
  "tags": {
    "amenity": "place_of_worship",
    "denomination": "syro_malankara_catholic",
    "name": "St.Thomas Malankara Catholic Church.Chengannur,Mavelikara Diocese,Kerala",
    "religion": "christian"
  }
},
{
  "type": "node",
  "id": 1925353506,
  "lat": 9.3132153,
  "lon": 76.6177859,
  "tags": {
    "amenity": "place_of_worship",
    "denomination": "Mar Thoma Syrian Church of Malabar",
    "name": "Thittamel Trinity Mar Thoma Church",
    "religion": "christian"
  }
},
{
  "type": "node",
  "id": 1925357886,
  "lat": 9.3212717,
  "lon": 76.6096740,
  "tags": {
    "addr:postcode": "689121",
    "amenity": "place_of_worship",
    "name": "Vandimala Ambalam",
    "religion": "hindu"
  }
},
{
  "type": "node",
  "id": 1925366190,
  "lat": 9.3226962,
  "lon": 76.6055099,
  "tags": {
    "amenity": "place_of_worship",
    "denomination": "mar_thoma_syrian",
    "name": "Old Syrian Church",
    "religion": "christian",
    "wikidata": "Q7156992",
    "wikimedia_commons": "Category:Old Syrian Church, Chengannur",
    "wikipedia": "en:Old Syrian Church, Chengannur"
  }
},
{
  "type": "node",
  "id": 1925366191,
  "lat": 9.3231779,
  "lon": 76.6052063,
  "tags": {
    "amenity": "place_of_worship",
    "denomination": "indian_orthodox",
    "name": "സെന്റ് ഇഗ്നേഷ്യസ് ഓർത്തോഡോക്സ് പളളി",
    "name:en": "St.Ignatius Orthodox Church",
    "religion": "christian"
  }
},
{
  "type": "node",
  "id": 1925366192,
  "lat": 9.3255887,
  "lon": 76.6057465,
  "tags": {
    "amenity": "place_of_worship",
    "denomination": "Mar Thoma Syrian Church of Malabar",
    "name": "Chengannur Mar Thoma Valiya Pally",
    "religion": "christian"
  }
},
{
  "type": "node",
  "id": 1941103305,
  "lat": 9.3252646,
  "lon": 76.6126920,
  "tags": {
    "addr:postcode": "689121",
    "addr:street": "Kizhakke nada",
    "alt_name": "Ammommayyam",
    "amenity": "school",
    "name": "Government Upper Primary School"
  }
},
{
  "type": "node",
  "id": 2237102126,
  "lat": 9.6893734,
  "lon": 76.7294329,
  "tags": {
    "amenity": "hospital",
    "name": "Oshana Mount Hospital"
  }
},
{
  "type": "node",
  "id": 2275855469,
  "lat": 9.5930535,
  "lon": 76.5017771,
  "tags": {
    "amenity": "place_of_worship",
    "name": "Mar Baselios Mar Gregorios Malankara orthadox church",
    "religion": "christian"
  }
},
{
  "type": "node",
  "id": 2281041469,
  "lat": 9.7042683,
  "lon": 76.7199709,
  "tags": {
    "amenity": "place_of_worship",
    "denomination": "catholic",
    "name": "Hospital Chapel",
    "religion": "christian"
  }
},
{
  "type": "node",
  "id": 2291869230,
  "lat": 9.6442533,
  "lon": 76.6085526,
  "tags": {
    "addr:housename": "St. Sebastian's Churc",
    "addr:street": "Ayarkunnam",
    "amenity": "place_of_worship",
    "name": "St. Sebastian's Church Ayarkunnam",
    "religion": "christian",
    "website": "http://stsebastianschurchayarkunnam.org"
  }
},
{
  "type": "node",
  "id": 2291869259,
  "lat": 9.6436134,
  "lon": 76.6081181,
  "tags": {
    "addr:postcode": "686564",
    "addr:street": "Ayarkunnam",
    "amenity": "school",
    "name": "St. Sebastian's High School Ayarkunnam",
    "phone": "+91-481-2543256, +91-481-2545375",
    "website": "www.stsebastianshs.org"
  }
},
{
  "type": "node",
  "id": 2408369269,
  "lat": 9.5243549,
  "lon": 76.5594150,
  "tags": {
    "addr:city": "Kottayam",
    "addr:postcode": "686533",
    "addr:street": "Chingavanam Njaliakuzhi Road",
    "amenity": "place_of_worship",
    "building": "yes",
    "name": "St Mary's Orthodox Church",
    "religion": "christian"
  }
},
{
  "type": "node",
  "id": 2408369270,
  "lat": 9.5255278,
  "lon": 76.5505218,
  "tags": {
    "addr:city": "Kottayam",
    "addr:postcode": "686533",
    "addr:street": "Parakulam Velloothurthy Temple Road",
    "amenity": "school",
    "building": "yes",
    "name": "Parakkulam Government School",
    "operator": "Government of Kerala"
  }
},
{
  "type": "node",
  "id": 2408369271,
  "lat": 9.5203053,
  "lon": 76.5735315,
  "tags": {
    "amenity": "school",
    "name": "MGEM School"
  }
},
{
  "type": "node",
  "id": 2408369272,
  "lat": 9.5138492,
  "lon": 76.5629993,
  "tags": {
    "addr:city": "Kottayam",
    "amenity": "place_of_worship",
    "building": "yes",
    "name": "St Johns Church Vakathanam",
    "religion": "christian"
  }
},
{
  "type": "node",
  "id": 2517655173,
  "lat": 9.5010547,
  "lon": 76.3376610,
  "tags": {
    "amenity": "place_of_worship",
    "building": "yes",
    "name": "St. Thomas Marthoma Syrian Church",
    "religion": "christian"
  }
},
{
  "type": "node",
  "id": 2528048657,
  "lat": 9.6005107,
  "lon": 76.5889356,
  "tags": {
    "addr:city": "Kottayam",
    "addr:housename": "Manarcad Sri Bhagavathy Temple",
    "addr:postcode": "686019",
    "addr:street": "Manarcadu",
    "amenity": "place_of_worship",
    "name": "Manarcaud Devi Temple",
    "note": "email: info@manarkattamma.org",
    "phone": "+91 481 2370418",
    "religion": "hindu",
    "website": "http://www.manarkattamma.org"
  }
},
{
  "type": "node",
  "id": 2555411615,
  "lat": 9.3682137,
  "lon": 76.4785290,
  "tags": {
    "addr:district": "Alappuzha",
    "addr:full": "Edathua",
    "addr:postcode": "689573",
    "addr:state": "Kerala",
    "amenity": "hospital",
    "emergency": "yes",
    "name": "Maha Jubilee Memorial Hospital",
    "source": "OpenGovernmentData"
  }
},
{
  "type": "node",
  "id": 2582328250,
  "lat": 9.7023548,
  "lon": 76.6574913,
  "tags": {
    "addr:city": "Pala",
    "addr:housename": "Puliyanoor",
    "amenity": "school",
    "name": "Asramam Government LPS Puliyanoor"
  }
},
{
  "type": "node",
  "id": 2582451102,
  "lat": 9.6299225,
  "lon": 76.5975088,
  "tags": {
    "amenity": "place_of_worship",
    "religion": "christian"
  }
},
{
  "type": "node",
  "id": 2595496255,
  "lat": 9.4626186,
  "lon": 76.5524968,
  "tags": {
    "addr:city": "Changanacherry",
    "addr:district": "Kottayam",
    "addr:full": "Chethipuzha, Changanacherry",
    "addr:housename": "Chethipuzha",
    "addr:postcode": "686104",
    "addr:state": "Kerala",
    "addr:street": "Chethipuzha, Kurishmoodu Road",
    "amenity": "hospital",
    "contact:fax": "+91 0481-2721584",
    "email": "info@st-thomashospital.org",
    "healthcare": "hospital",
    "healthcare:speciality": "general",
    "name": "St. Thomas Hospital, Chethipuzha",
    "name:ml": "സെന്റ് തോമസ് ആശുപത്രി;ചെത്തിപ്പുഴ",
    "phone": "+91 481 2723952;+91 481 2721797",
    "source": "OpenGovernmentData",
    "website": "http://www.st-thomashospital.net/contact.html"
  }
},
{
  "type": "node",
  "id": 2605812592,
  "lat": 9.3331870,
  "lon": 76.7058099,
  "tags": {
    "amenity": "school",
    "name": "Marthoma Senior Secondary School",
    "wikidata": "Q6774665",
    "wikipedia": "en:Marthoma Senior Secondary School, Kozhencherry"
  }
},
{
  "type": "node",
  "id": 2605823954,
  "lat": 9.3381839,
  "lon": 76.7078379,
  "tags": {
    "amenity": "place_of_worship",
    "name": "St. Thomas Marthoma Church Kozhencherry",
    "religion": "christian"
  }
},
{
  "type": "node",
  "id": 2630015280,
  "lat": 9.2562701,
  "lon": 76.4642233,
  "tags": {
    "amenity": "hospital"
  }
},
{
  "type": "node",
  "id": 2631260686,
  "lat": 9.3459999,
  "lon": 76.5350614,
  "tags": {
    "amenity": "place_of_worship",
    "name": "Alumturuthi Church",
    "religion": "christian"
  }
},
{
  "type": "node",
  "id": 2635014993,
  "lat": 9.5017417,
  "lon": 76.3684497,
  "tags": {
    "amenity": "school"
  }
},
{
  "type": "node",
  "id": 2664703112,
  "lat": 9.4846296,
  "lon": 76.4620779,
  "tags": {
    "amenity": "place_of_worship",
    "denomination": "united",
    "name": "Kavumpadi Temple",
    "religion": "hindu"
  }
},
{
  "type": "node",
  "id": 2683651686,
  "lat": 9.7086589,
  "lon": 76.5332490,
  "tags": {
    "amenity": "place_of_worship",
    "name": "Nambiyakulam Church",
    "religion": "christian"
  }
},
{
  "type": "node",
  "id": 2750720837,
  "lat": 9.3800064,
  "lon": 76.3864381,
  "tags": {
    "amenity": "place_of_worship",
    "religion": "buddhist"
  }
},
{
  "type": "node",
  "id": 2763633286,
  "lat": 9.3830682,
  "lon": 76.5928353,
  "tags": {
    "amenity": "place_of_worship",
    "name": "Meenthalakkara Ayappa Temple",
    "religion": "hindu"
  }
},
{
  "type": "node",
  "id": 2804235339,
  "lat": 9.1929304,
  "lon": 76.6366621,
  "tags": {
    "amenity": "place_of_worship",
    "name": "പടനിലം പരബ്രഹ്മ ക്ഷേത്രം",
    "name:en": "Padanilam Temple",
    "religion": "hindu"
  }
},
{
  "type": "node",
  "id": 2838916312,
  "lat": 9.5053193,
  "lon": 76.3447787,
  "tags": {
    "amenity": "place_of_worship",
    "religion": "christian"
  }
},
{
  "type": "node",
  "id": 2841328385,
  "lat": 9.4991335,
  "lon": 76.3408296,
  "tags": {
    "amenity": "place_of_worship",
    "name": "Amman Kovil",
    "religion": "hindu"
  }
},
{
  "type": "node",
  "id": 2841328386,
  "lat": 9.5000281,
  "lon": 76.3418515,
  "tags": {
    "amenity": "place_of_worship",
    "name": "Ganapathy Temple",
    "religion": "hindu"
  }
},
{
  "type": "node",
  "id": 2841328388,
  "lat": 9.4998969,
  "lon": 76.3419180,
  "tags": {
    "amenity": "place_of_worship",
    "name": "Shelvy Vasu Temple",
    "religion": "hindu"
  }
},
{
  "type": "node",
  "id": 2841328389,
  "lat": 9.4995019,
  "lon": 76.3486899,
  "tags": {
    "amenity": "place_of_worship",
    "name": "Shree Matha Malankara Church",
    "religion": "christian"
  }
},
{
  "type": "node",
  "id": 2841328390,
  "lat": 9.4996762,
  "lon": 76.3419845,
  "tags": {
    "amenity": "place_of_worship",
    "name": "Sree Annapoorna Temple",
    "religion": "hindu"
  }
},
{
  "type": "node",
  "id": 2841328391,
  "lat": 9.5029573,
  "lon": 76.3438533,
  "tags": {
    "amenity": "place_of_worship",
    "name": "St. George Syrian Simhasana Church",
    "opening_hours": "Mo-Su 09:00-18:00",
    "religion": "christian"
  }
},
{
  "type": "node",
  "id": 2841328392,
  "lat": 9.5023252,
  "lon": 76.3441647,
  "tags": {
    "amenity": "place_of_worship",
    "name": "Ujjayni Temple",
    "religion": "hindu"
  }
},
{
  "type": "node",
  "id": 2882861546,
  "lat": 9.6697365,
  "lon": 76.5825065,
  "tags": {
    "amenity": "place_of_worship",
    "religion": "christian"
  }
},
{
  "type": "node",
  "id": 2883088738,
  "lat": 9.7047620,
  "lon": 76.7192486,
  "tags": {
    "amenity": "college",
    "name": "Immaculate Heart of Mary School of Nursing (IHM (Marygiri))"
  }
},
{
  "type": "node",
  "id": 2906166023,
  "lat": 9.6958101,
  "lon": 76.7088920,
  "tags": {
    "amenity": "place_of_worship",
    "building": "church",
    "name": "St. Gregorius Church, Kizhaparayar",
    "religion": "christian"
  }
},
{
  "type": "node",
  "id": 2906166024,
  "lat": 9.6967265,
  "lon": 76.7099861,
  "tags": {
    "amenity": "clinic",
    "name": "Kizhaparayar Primary Health Centre"
  }
},
{
  "type": "node",
  "id": 2906166025,
  "lat": 9.6850826,
  "lon": 76.7020390,
  "tags": {
    "amenity": "place_of_worship",
    "building": "church",
    "name": "Cherupushpam Church, Palakadu",
    "religion": "christian"
  }
},
{
  "type": "node",
  "id": 2906166026,
  "lat": 9.6891801,
  "lon": 76.7052245,
  "tags": {
    "amenity": "place_of_worship",
    "building": "chapel",
    "name": "Palakadu Kurishupallay",
    "religion": "christian"
  }
},
{
  "type": "node",
  "id": 2906166027,
  "lat": 9.7016973,
  "lon": 76.7006657,
  "tags": {
    "amenity": "school",
    "name": "Parappalli L.P School"
  }
},
{
  "type": "node",
  "id": 2906166029,
  "lat": 9.7022669,
  "lon": 76.7004647,
  "tags": {
    "amenity": "place_of_worship",
    "building": "church",
    "name": "St Sebastine",
    "religion": "christian"
  }
},
{
  "type": "node",
  "id": 2906166621,
  "lat": 9.6933187,
  "lon": 76.6920206,
  "tags": {
    "amenity": "place_of_worship",
    "religion": "hindu"
  }
},
{
  "type": "node",
  "id": 2908539849,
  "lat": 9.2478260,
  "lon": 76.5211566,
  "tags": {
    "addr:district": "Alappuzha",
    "addr:full": "Thattarambalam P.O, Mavelikara",
    "addr:postcode": "690103",
    "addr:state": "Kerala",
    "amenity": "hospital",
    "emergency": "yes",
    "name": "V.S.M. Hospital",
    "source": "OpenGovernmentData"
  }
},
{
  "type": "node",
  "id": 2908613986,
  "lat": 9.2534701,
  "lon": 76.5447277,
  "tags": {
    "amenity": "place_of_worship",
    "name": "Puthiyakavu Devi temple",
    "religion": "hindu"
  }
},
{
  "type": "node",
  "id": 2908613992,
  "lat": 9.2563372,
  "lon": 76.5441062,
  "tags": {
    "amenity": "school",
    "name": "Infant Jesus School"
  }
},
{
  "type": "node",
  "id": 2908784982,
  "lat": 9.3142682,
  "lon": 76.5335523,
  "tags": {
    "amenity": "school",
    "name": "Nair Samajam Higher Secondary School"
  }
},
{
  "type": "node",
  "id": 2908784984,
  "lat": 9.2884390,
  "lon": 76.5318485,
  "tags": {
    "amenity": "school",
    "name": "Jawahar Navodaya Vidyalaya"
  }
},
{
  "type": "node",
  "id": 2908823746,
  "lat": 9.3256996,
  "lon": 76.5352734,
  "tags": {
    "amenity": "school",
    "name": "Parumala Seminary LP School",
    "name:ml": "പരുമല സെമിനാരി എൽ.പി. സ്കൂൾ"
  }
},
{
  "type": "node",
  "id": 2908823748,
  "lat": 9.3247777,
  "lon": 76.5366936,
  "tags": {
    "addr:city": "Parumala",
    "alt_name": "Parumala Church",
    "amenity": "place_of_worship",
    "denomination": "orthodox",
    "name": "Parumala St. Peter's & St. Paul's Church",
    "name:ml": "പരുമല സെന്റ് പീറ്റേഴ്സ് ആന്റ് സെന്റ് പോൾസ് ഓർത്തഡോക്സ് പള്ളി പള്ളി",
    "religion": "christian"
  }
},
{
  "type": "node",
  "id": 2909021281,
  "lat": 9.3767890,
  "lon": 76.5568916,
  "tags": {
    "amenity": "place_of_worship",
    "name": "Anandeswaram Temple",
    "religion": "hindu"
  }
},
{
  "type": "node",
  "id": 2909034097,
  "lat": 9.3791046,
  "lon": 76.5704476,
  "tags": {
    "amenity": "place_of_worship",
    "name": "St. John's Cathedral",
    "religion": "christian"
  }
},
{
  "type": "node",
  "id": 2909065432,
  "lat": 9.3830495,
  "lon": 76.5763544,
  "tags": {
    "amenity": "college",
    "name": "Titus II Teachers' Training College"
  }
},
{
  "type": "node",
  "id": 2909065461,
  "lat": 9.3847305,
  "lon": 76.5759809,
  "tags": {
    "alt_name": "SCS High School",
    "amenity": "school",
    "name": "SC Seminary High School"
  }
},
{
  "type": "node",
  "id": 2910265278,
  "lat": 9.3839926,
  "lon": 76.6428001,
  "tags": {
    "amenity": "place_of_worship",
    "denomination": "orthodox",
    "name": "St.Thomas orthodox church",
    "religion": "christian"
  }
},
{
  "type": "node",
  "id": 2910840057,
  "lat": 9.3368136,
  "lon": 76.7079349,
  "tags": {
    "addr:district": "Pathanamthitta",
    "addr:full": "P.B.No-15,Kozhencherry",
    "addr:postcode": "689641",
    "addr:state": "Kerala",
    "amenity": "hospital",
    "emergency": "yes",
    "healthcare": "hospital",
    "name": "Poyanil Hospital, Pathanamthitta",
    "source": "OpenGovernmentData"
  }
},
{
  "type": "node",
  "id": 2910847809,
  "lat": 9.3368295,
  "lon": 76.7091069,
  "tags": {
    "amenity": "school",
    "name": "St. Thomas Higher Secondary School"
  }
},
{
  "type": "node",
  "id": 2910857484,
  "lat": 9.3352379,
  "lon": 76.7093311,
  "tags": {
    "amenity": "school",
    "name": "Government LP School"
  }
},
{
  "type": "node",
  "id": 2914393662,
  "lat": 9.6052323,
  "lon": 76.7315173,
  "tags": {
    "amenity": "school",
    "name": "St. Mary's High School"
  }
},
{
  "type": "node",
  "id": 2914393666,
  "lat": 9.6060470,
  "lon": 76.7303746,
  "tags": {
    "amenity": "place_of_worship",
    "check_date": "2026-01-02",
    "name": "St. Mary's Church Elangulam",
    "religion": "christian"
  }
},
{
  "type": "node",
  "id": 2914393667,
  "lat": 9.6049599,
  "lon": 76.7309996,
  "tags": {
    "amenity": "school",
    "check_date": "2026-01-02",
    "name": "St. Mary's LP School"
  }
},
{
  "type": "node",
  "id": 2914393670,
  "lat": 9.6069407,
  "lon": 76.7315629,
  "tags": {
    "amenity": "school",
    "name": "St. Mary's Convent"
  }
},
{
  "type": "node",
  "id": 2914404356,
  "lat": 9.6660266,
  "lon": 76.7104026,
  "tags": {
    "amenity": "place_of_worship",
    "check_date": "2025-12-31",
    "name": "Sacred Heart Church",
    "religion": "christian"
  }
},
{
  "type": "node",
  "id": 2914441594,
  "lat": 9.6515945,
  "lon": 76.7245092,
  "tags": {
    "addr:district": "Kottayam",
    "addr:full": "Poovarani Post",
    "addr:postcode": "686577",
    "addr:state": "Kerala",
    "addr:street": "Pala-Ponkunam Road",
    "amenity": "hospital",
    "beds": "46",
    "check_date": "2025-12-31",
    "healthcare": "hospital",
    "healthcare:speciality": "general;gynaecology;internal",
    "name": "Paika CHC",
    "operator": "DHC",
    "operator:type": "government",
    "source": "OpenGovernmentData",
    "wheelchair": "yes"
  }
},
{
  "type": "node",
  "id": 2914441596,
  "lat": 9.6538155,
  "lon": 76.7240768,
  "tags": {
    "amenity": "school",
    "name": "Little FLower School"
  }
},
{
  "type": "node",
  "id": 2914441597,
  "lat": 9.6510207,
  "lon": 76.7263269,
  "tags": {
    "amenity": "school",
    "name": "Jyothi Public School"
  }
},
{
  "type": "node",
  "id": 2914441599,
  "lat": 9.6534348,
  "lon": 76.7243263,
  "tags": {
    "amenity": "school",
    "name": "Paika Convent"
  }
},
{
  "type": "node",
  "id": 2914441600,
  "lat": 9.6539612,
  "lon": 76.7231539,
  "tags": {
    "amenity": "place_of_worship",
    "name": "St. Joseph's Church",
    "religion": "christian"
  }
},
{
  "type": "node",
  "id": 2914485313,
  "lat": 9.6778375,
  "lon": 76.6941970,
  "tags": {
    "amenity": "place_of_worship",
    "name": "Poovarani Mahadeva Temple",
    "religion": "hindu"
  }
},
{
  "type": "node",
  "id": 2914485314,
  "lat": 9.6713385,
  "lon": 76.7038607,
  "tags": {
    "amenity": "school",
    "check_date": "2025-12-31",
    "name": "Government LP School"
  }
},
{
  "type": "node",
  "id": 2914565780,
  "lat": 9.7070001,
  "lon": 76.6796460,
  "tags": {
    "amenity": "place_of_worship",
    "name": "Old CHurch",
    "religion": "christian"
  }
},
{
  "type": "node",
  "id": 2914565813,
  "lat": 9.7138924,
  "lon": 76.6838169,
  "tags": {
    "amenity": "place_of_worship",
    "religion": "hindu"
  }
},
{
  "type": "node",
  "id": 2914565818,
  "lat": 9.7069128,
  "lon": 76.6802442,
  "tags": {
    "amenity": "place_of_worship",
    "name": "St. Thomas Cathedral",
    "religion": "christian"
  }
},
{
  "type": "node",
  "id": 2917197207,
  "lat": 9.5610729,
  "lon": 76.5741114,
  "tags": {
    "addr:street": "Manarcadu-Puthuppally road",
    "amenity": "school",
    "name": "St. George Government School"
  }
},
{
  "type": "node",
  "id": 2917216667,
  "lat": 9.5404072,
  "lon": 76.5944935,
  "tags": {
    "addr:street": "Kottayam-Kozhencherry Highway",
    "amenity": "place_of_worship",
    "religion": "christian"
  }
},
{
  "type": "node",
  "id": 2917216690,
  "lat": 9.5353073,
  "lon": 76.5992142,
  "tags": {
    "addr:street": "Kottayam-Kozhencherry Highway",
    "amenity": "place_of_worship",
    "name": "Mar Aprem Orthodox CHurch",
    "religion": "christian"
  }
},
{
  "type": "node",
  "id": 2917216809,
  "lat": 9.5365427,
  "lon": 76.6010649,
  "tags": {
    "amenity": "school",
    "name": "St. Thomas High School"
  }
},
{
  "type": "node",
  "id": 2917259093,
  "lat": 9.5299482,
  "lon": 76.6074647,
  "tags": {
    "addr:street": "Kottayam-Kozhencherry Highway",
    "amenity": "school",
    "name": "Government High School",
    "wikidata": "Q87660226"
  }
},
{
  "type": "node",
  "id": 2917259246,
  "lat": 9.5308079,
  "lon": 76.6058446,
  "tags": {
    "amenity": "place_of_worship",
    "name": "St. George Church",
    "religion": "christian"
  }
},
{
  "type": "node",
  "id": 2917269846,
  "lat": 9.5137063,
  "lon": 76.6382672,
  "tags": {
    "addr:street": "Changanassery - Vazhoor Road",
    "amenity": "place_of_worship",
    "name": "Sri Bhagavathi Temple നെത്തല്ലൂര്‍ ശ്രീ ഭഗവതീക്ഷേത്രം",
    "religion": "hindu"
  }
},
{
  "type": "node",
  "id": 2917357977,
  "lat": 9.4423547,
  "lon": 76.6678037,
  "tags": {
    "amenity": "school",
    "name": "CMS Higher Secondary School"
  }
},
{
  "type": "node",
  "id": 2917396643,
  "lat": 9.4031646,
  "lon": 76.6685842,
  "tags": {
    "amenity": "school",
    "name": "St. Behanan's Higher Secondary School"
  }
},
{
  "type": "node",
  "id": 2917421131,
  "lat": 9.3562394,
  "lon": 76.6768320,
  "tags": {
    "amenity": "school",
    "name": "Swami Vivekananda High School"
  }
},
{
  "type": "node",
  "id": 2917429851,
  "lat": 9.2540845,
  "lon": 76.5469031,
  "tags": {
    "amenity": "place_of_worship",
    "name": "St. Mary's Orthodox Church",
    "religion": "christian"
  }
},
{
  "type": "node",
  "id": 2917432106,
  "lat": 9.2551037,
  "lon": 76.5511759,
  "tags": {
    "amenity": "place_of_worship",
    "name": "Mar Thoma Church",
    "religion": "christian"
  }
},
{
  "type": "node",
  "id": 2917445453,
  "lat": 9.2573567,
  "lon": 76.5539385,
  "tags": {
    "amenity": "school",
    "name": "MSS High School"
  }
},
{
  "type": "node",
  "id": 2918217356,
  "lat": 9.2492346,
  "lon": 76.5786658,
  "tags": {
    "amenity": "place_of_worship",
    "name": "St. Thomas Church",
    "religion": "christian"
  }
},
{
  "type": "node",
  "id": 2919806544,
  "lat": 9.4733471,
  "lon": 76.3370791,
  "tags": {
    "amenity": "school",
    "name": "Jyoti Nikethan High School"
  }
},
{
  "type": "node",
  "id": 2919806556,
  "lat": 9.4682146,
  "lon": 76.3413814,
  "tags": {
    "amenity": "school",
    "name": "Kalarcode Government LP School"
  }
},
{
  "type": "node",
  "id": 2919876103,
  "lat": 9.4627167,
  "lon": 76.3637567,
  "tags": {
    "addr:city": "Alappuzha",
    "addr:street": "Alappuzha-Changanassery Highway",
    "amenity": "place_of_worship",
    "denomination": "roman_catholic",
    "name": "St. Thomas Church, Pallathuruthy",
    "religion": "christian"
  }
},
{
  "type": "node",
  "id": 2920026527,
  "lat": 9.4430718,
  "lon": 76.4037858,
  "tags": {
    "amenity": "place_of_worship",
    "religion": "hindu"
  }
},
{
  "type": "node",
  "id": 2920188373,
  "lat": 9.4418706,
  "lon": 76.5449934,
  "tags": {
    "amenity": "school",
    "name": "Government LP School"
  }
},
{
  "type": "node",
  "id": 2920300561,
  "lat": 9.3834444,
  "lon": 76.3541466,
  "tags": {
    "amenity": "school",
    "name": "Kkkpm Government School"
  }
},
{
  "type": "node",
  "id": 2920427576,
  "lat": 9.3792423,
  "lon": 76.3878347,
  "tags": {
    "amenity": "place_of_worship",
    "name": "Karumadi Kaavil Temple",
    "religion": "hindu"
  }
},
{
  "type": "node",
  "id": 2920441913,
  "lat": 9.3724596,
  "lon": 76.4112909,
  "tags": {
    "amenity": "school",
    "name": "Dbhss Thakazhy High School, Alappuzha"
  }
},
{
  "type": "node",
  "id": 2920441961,
  "lat": 9.3721607,
  "lon": 76.4096464,
  "tags": {
    "amenity": "place_of_worship",
    "name": "Thakazhy Sree Dharma Sastha Temple",
    "religion": "hindu",
    "wheelchair": "yes"
  }
},
{
  "type": "node",
  "id": 2961041626,
  "lat": 9.7036064,
  "lon": 76.3928854,
  "tags": {
    "amenity": "place_of_worship",
    "name": "T V Puram Nithya Sahaya Matha Church",
    "religion": "christian"
  }
},
{
  "type": "node",
  "id": 2986113828,
  "lat": 9.6505645,
  "lon": 76.7124020,
  "tags": {
    "amenity": "place_of_worship",
    "name": "Chapel",
    "name:ml": "ചാപ്പൽ",
    "religion": "christian"
  }
},
{
  "type": "node",
  "id": 2986113831,
  "lat": 9.6580480,
  "lon": 76.7011074,
  "tags": {
    "amenity": "school",
    "name": "Kochukottaram L. P. School"
  }
},
{
  "type": "node",
  "id": 2986116683,
  "lat": 9.6531341,
  "lon": 76.6969004,
  "tags": {
    "amenity": "place_of_worship",
    "religion": "hindu"
  }
},
{
  "type": "node",
  "id": 2989813563,
  "lat": 9.2696699,
  "lon": 76.6124218,
  "tags": {
    "addr:city": "Chengannur",
    "addr:country": "IN",
    "addr:postcode": "689508",
    "addr:street": "Kodukulanji P.O",
    "amenity": "place_of_worship",
    "denomination": "CSI",
    "name": "CSI Christ Church, Kodukulanji",
    "religion": "christian"
  }
},
{
  "type": "node",
  "id": 3007217121,
  "lat": 9.7100458,
  "lon": 76.7126258,
  "tags": {
    "amenity": "place_of_worship",
    "name": "Edapaddy Vazhanekkavu Devi Temple",
    "religion": "hindu"
  }
},
{
  "type": "node",
  "id": 3007217122,
  "lat": 9.7139386,
  "lon": 76.7170198,
  "tags": {
    "amenity": "school",
    "name": "Areepara Government Lower Primary School, Edappady"
  }
},
{
  "type": "node",
  "id": 3007217126,
  "lat": 9.7159494,
  "lon": 76.6952268,
  "tags": {
    "amenity": "hospital",
    "name": "Pala Government Hospital Homeo Hospital"
  }
},
{
  "type": "node",
  "id": 3008896637,
  "lat": 9.6855443,
  "lon": 76.6665860,
  "tags": {
    "amenity": "place_of_worship",
    "name": "Idathett Devi Temple Panthathala",
    "religion": "hindu"
  }
},
{
  "type": "node",
  "id": 3008896641,
  "lat": 9.6930238,
  "lon": 76.6704438,
  "tags": {
    "amenity": "school",
    "name": "Velliyepally Govt L.P. School"
  }
},
{
  "type": "node",
  "id": 3009061752,
  "lat": 9.6205834,
  "lon": 76.7066386,
  "tags": {
    "amenity": "school",
    "name": "S H Convent Scholl Chengalam"
  }
},
{
  "type": "node",
  "id": 3009124686,
  "lat": 9.6756455,
  "lon": 76.5887772,
  "tags": {
    "amenity": "school",
    "name": "Mary Mount Public School"
  }
},
{
  "type": "node",
  "id": 3139489772,
  "lat": 9.5105667,
  "lon": 76.5507868,
  "tags": {
    "addr:city": "Kottayam",
    "addr:postcode": "686532",
    "amenity": "college",
    "name": "Saintgits Institute of Management",
    "website": "https://saintgits.org/saintgits-institute-of-management/"
  }
},
{
  "type": "node",
  "id": 3186511701,
  "lat": 9.4944700,
  "lon": 76.6294598,
  "tags": {
    "addr:postcode": "686540",
    "amenity": "place_of_worship",
    "denomination": "roman_catholic",
    "name": "St Mary's Church Koothrappally",
    "religion": "christian"
  }
},
{
  "type": "node",
  "id": 3190301637,
  "lat": 9.6081922,
  "lon": 76.7279723,
  "tags": {
    "amenity": "place_of_worship",
    "name": "Pullattukunnel Devi Temple",
    "religion": "hindu"
  }
},
{
  "type": "node",
  "id": 3190301640,
  "lat": 9.6133839,
  "lon": 76.7229726,
  "tags": {
    "amenity": "place_of_worship",
    "building": "chapel",
    "name": "St Jude Chappel Panthamakkal",
    "religion": "christian"
  }
},
{
  "type": "node",
  "id": 3190301641,
  "lat": 9.6383899,
  "lon": 76.6738898,
  "tags": {
    "amenity": "school",
    "name": "St Thomas L.P. School"
  }
},
{
  "type": "node",
  "id": 3244448703,
  "lat": 9.6025282,
  "lon": 76.6846996,
  "tags": {
    "amenity": "place_of_worship",
    "name": "Aanikkadu Shri Bhagavathi Temple",
    "religion": "hindu"
  }
},
{
  "type": "node",
  "id": 3244448704,
  "lat": 9.6175954,
  "lon": 76.7076871,
  "tags": {
    "amenity": "hospital",
    "name": "Mercy Hospital, Chengalam"
  }
},
{
  "type": "node",
  "id": 3244448706,
  "lat": 9.6102036,
  "lon": 76.6923853,
  "tags": {
    "amenity": "place_of_worship",
    "name": "Nellikkasheri Bhagavathi Temple",
    "religion": "hindu"
  }
},
{
  "type": "node",
  "id": 3244448709,
  "lat": 9.6234383,
  "lon": 76.6894039,
  "tags": {
    "amenity": "place_of_worship",
    "name": "adhyathmika padanakendram",
    "religion": "hindu"
  }
},
{
  "type": "node",
  "id": 3274407504,
  "lat": 9.5267029,
  "lon": 76.3398923,
  "tags": {
    "addr:city": "Alleppey",
    "addr:postcode": "688006",
    "addr:street": "South Aryad",
    "amenity": "place_of_worship",
    "denomination": "hindu",
    "name": "Thekkan Pazhani Subramanya Swamy Temple",
    "religion": "hindu"
  }
},
{
  "type": "node",
  "id": 3274423943,
  "lat": 9.5313406,
  "lon": 76.3410591,
  "tags": {
    "addr:city": "Alleppey",
    "addr:street": "South Aryad",
    "amenity": "place_of_worship",
    "name": "Thiruvilak Kanikka Mandapam",
    "religion": "hindu"
  }
},
{
  "type": "node",
  "id": 3274447612,
  "lat": 9.5312469,
  "lon": 76.3441449,
  "tags": {
    "addr:city": "Alleppey",
    "addr:postcode": "688006",
    "amenity": "place_of_worship",
    "name": "Thiruvilak Temple",
    "religion": "hindu"
  }
},
{
  "type": "node",
  "id": 3286245592,
  "lat": 9.7089956,
  "lon": 76.5835658,
  "tags": {
    "amenity": "place_of_worship",
    "religion": "hindu"
  }
},
{
  "type": "node",
  "id": 3296976865,
  "lat": 9.7075835,
  "lon": 76.5653371,
  "tags": {
    "amenity": "place_of_worship",
    "name": "Holy Family Chappel",
    "religion": "christian"
  }
},
{
  "type": "node",
  "id": 3296976871,
  "lat": 9.7097913,
  "lon": 76.5599641,
  "tags": {
    "amenity": "place_of_worship",
    "name": "Mahadevi Temple",
    "religion": "hindu"
  }
},
{
  "type": "node",
  "id": 3296976877,
  "lat": 9.7091771,
  "lon": 76.5626279,
  "tags": {
    "amenity": "place_of_worship",
    "name": "Vettikkattu Mahadeva Temple",
    "religion": "hindu"
  }
},
{
  "type": "node",
  "id": 3355429256,
  "lat": 9.2711785,
  "lon": 76.7344024,
  "tags": {
    "addr:street": "Prakkanam Elavumthitta Rd",
    "amenity": "place_of_worship",
    "name": "Sree Bhadrakaali Temple",
    "religion": "hindu"
  }
},
{
  "type": "node",
  "id": 3355431286,
  "lat": 9.2677800,
  "lon": 76.7292799,
  "tags": {
    "addr:street": "Ovilpeedika",
    "amenity": "place_of_worship",
    "building": "church",
    "denomination": "catholic",
    "name": "St. Mary's Malankara Catholic Church",
    "opening_hours": "08:00-01:00",
    "religion": "christian",
    "service_times": "9-12",
    "wheelchair": "designated"
  }
},
{
  "type": "node",
  "id": 3355434595,
  "lat": 9.2660040,
  "lon": 76.7213252,
  "tags": {
    "addr:postcode": "689625",
    "addr:street": "Muttathukonam",
    "amenity": "place_of_worship",
    "denomination": "ezhava",
    "name": "Gurumandiram",
    "religion": "hindu"
  }
},
{
  "type": "node",
  "id": 3394055034,
  "lat": 9.3199899,
  "lon": 76.5373289,
  "tags": {
    "addr:city": "Mannar",
    "addr:postcode": "689622",
    "addr:street": "Shastha Temple",
    "amenity": "place_of_worship",
    "name": "TDB Sree Dharmashastha Temple",
    "religion": "hindu"
  }
},
{
  "type": "node",
  "id": 3410116942,
  "lat": 9.6860882,
  "lon": 76.5864475,
  "tags": {
    "amenity": "clinic",
    "name": "Chaithanya Homeo Clinic"
  }
},
{
  "type": "node",
  "id": 3410982534,
  "lat": 9.6908503,
  "lon": 76.5675222,
  "tags": {
    "amenity": "school",
    "name": "Ebeneza International Public School"
  }
},
{
  "type": "node",
  "id": 3410982574,
  "lat": 9.6747122,
  "lon": 76.5739254,
  "tags": {
    "amenity": "place_of_worship",
    "religion": "christian"
  }
},
{
  "type": "node",
  "id": 3410983654,
  "lat": 9.6780326,
  "lon": 76.5855982,
  "tags": {
    "amenity": "place_of_worship",
    "religion": "christian"
  }
},
{
  "type": "node",
  "id": 3410984615,
  "lat": 9.6921329,
  "lon": 76.5851950,
  "tags": {
    "amenity": "place_of_worship",
    "religion": "christian"
  }
},
{
  "type": "node",
  "id": 3421134555,
  "lat": 9.4561454,
  "lon": 76.5264702,
  "tags": {
    "amenity": "place_of_worship",
    "name": "Vazhappally Mahadeva Temple",
    "religion": "hindu"
  }
},
{
  "type": "node",
  "id": 3428970328,
  "lat": 9.6999352,
  "lon": 76.5867924,
  "tags": {
    "amenity": "clinic",
    "healthcare": "clinic",
    "name": "Govt Ayurvedic Dispensary"
  }
},
{
  "type": "node",
  "id": 3428970329,
  "lat": 9.6974250,
  "lon": 76.5753517,
  "tags": {
    "amenity": "place_of_worship",
    "name": "Kadappoor Devi Temple",
    "religion": "hindu"
  }
},
{
  "type": "node",
  "id": 3433334436,
  "lat": 9.6721522,
  "lon": 76.6324414,
  "tags": {
    "amenity": "place_of_worship",
    "name": "Vattamparamb sastha templeChempilavu",
    "religion": "hindu"
  }
},
{
  "type": "node",
  "id": 3433334443,
  "lat": 9.7167013,
  "lon": 76.6337479,
  "tags": {
    "amenity": "place_of_worship",
    "name": "Vaarikkattu Devi Temple",
    "religion": "hindu"
  }
},
{
  "type": "node",
  "id": 3433336380,
  "lat": 9.6665124,
  "lon": 76.6385168,
  "tags": {
    "amenity": "place_of_worship",
    "religion": "christian"
  }
},
{
  "type": "node",
  "id": 3433336451,
  "lat": 9.6681294,
  "lon": 76.6110813,
  "tags": {
    "amenity": "place_of_worship",
    "religion": "christian"
  }
},
{
  "type": "node",
  "id": 3433336720,
  "lat": 9.6744247,
  "lon": 76.6470958,
  "tags": {
    "amenity": "place_of_worship",
    "name": "Kezhuvamkulam Temple",
    "religion": "hindu"
  }
},
{
  "type": "node",
  "id": 3433337084,
  "lat": 9.6828016,
  "lon": 76.6228874,
  "tags": {
    "amenity": "place_of_worship",
    "religion": "hindu"
  }
},
{
  "type": "node",
  "id": 3433337203,
  "lat": 9.6864654,
  "lon": 76.6255600,
  "tags": {
    "amenity": "hospital",
    "healthcare": "hospital",
    "name": "Mannam Memorial N.S.S Ayurveda Hospital"
  }
},
{
  "type": "node",
  "id": 3433337410,
  "lat": 9.6911276,
  "lon": 76.6108245,
  "tags": {
    "amenity": "place_of_worship",
    "religion": "christian"
  }
},
{
  "type": "node",
  "id": 3434482292,
  "lat": 9.6065852,
  "lon": 76.5292039,
  "tags": {
    "addr:city": "kottayam",
    "addr:postcode": "686006",
    "amenity": "place_of_worship",
    "denomination": "catholic",
    "description": "sacred heart mount church, dedicated to the sacred heart of jesus.",
    "name": "എസ്.എച്ച് മൗണ്ട് പളളി",
    "name:en": "S.H Mount church",
    "religion": "christian",
    "source": "local knowledge",
    "website": "https://shmountchurchkottayam.com/"
  }
},
{
  "type": "node",
  "id": 3501478252,
  "lat": 9.4551946,
  "lon": 76.5513958,
  "tags": {
    "addr:street": "Changanassery- Vazhoor Road",
    "amenity": "place_of_worship",
    "name": "St. Mary's Syro-Malabar Church, Parel",
    "name:ml": "പാറേൽ പരിശുദ്ധ മാതാവ് പള്ളി",
    "religion": "christian"
  }
},
{
  "type": "node",
  "id": 3546197126,
  "lat": 9.2169018,
  "lon": 76.6476321,
  "tags": {
    "amenity": "place_of_worship",
    "name": "pattoor mahadeva temple",
    "religion": "hindu"
  }
},
{
  "type": "node",
  "id": 3546207238,
  "lat": 9.2147866,
  "lon": 76.6391678,
  "tags": {
    "amenity": "place_of_worship",
    "religion": "hindu"
  }
},
{
  "type": "node",
  "id": 3555639366,
  "lat": 9.4385025,
  "lon": 76.5454463,
  "tags": {
    "amenity": "college",
    "name": "NSS Training College"
  }
},
{
  "type": "node",
  "id": 3555639379,
  "lat": 9.4388470,
  "lon": 76.5467564,
  "tags": {
    "amenity": "school",
    "name": "NSS Girls High School"
  }
},
{
  "type": "node",
  "id": 3555653071,
  "lat": 9.4390911,
  "lon": 76.5437928,
  "tags": {
    "addr:city": "changanacherry",
    "addr:postcode": "686102",
    "addr:street": "MC Road",
    "amenity": "hospital",
    "healthcare": "hospital",
    "healthcare:speciality": "general",
    "name": "NSS Medical Mission Hospital"
  }
},
{
  "type": "node",
  "id": 3555653072,
  "lat": 9.4392582,
  "lon": 76.5430112,
  "tags": {
    "amenity": "place_of_worship",
    "religion": "hindu"
  }
},
{
  "type": "node",
  "id": 3579691696,
  "lat": 9.6081948,
  "lon": 76.5389978,
  "tags": {
    "amenity": "place_of_worship",
    "building": "yes",
    "historic": "yes",
    "name": "Soorya Kaladi Mana",
    "religion": "hindu",
    "tourism": "yes"
  }
},
{
  "type": "node",
  "id": 3950110053,
  "lat": 9.4895648,
  "lon": 76.3252648,
  "tags": {
    "amenity": "place_of_worship",
    "name": "Yafi Masjid",
    "religion": "muslim"
  }
},
{
  "type": "node",
  "id": 3950151332,
  "lat": 9.4857512,
  "lon": 76.3267769,
  "tags": {
    "amenity": "place_of_worship",
    "name": "Vattapally",
    "religion": "muslim"
  }
},
{
  "type": "node",
  "id": 3951230836,
  "lat": 9.4924694,
  "lon": 76.3263159,
  "tags": {
    "amenity": "place_of_worship",
    "name": "Jamat islami marquz masjid",
    "religion": "muslim"
  }
},
{
  "type": "node",
  "id": 3951232580,
  "lat": 9.4872764,
  "lon": 76.3259326,
  "tags": {
    "amenity": "place_of_worship",
    "name": "Kalappurakkal Temple",
    "religion": "hindu"
  }
},
{
  "type": "node",
  "id": 3951432191,
  "lat": 9.4820235,
  "lon": 76.3296357,
  "tags": {
    "amenity": "place_of_worship",
    "name": "Valiyakum Juma Masjid",
    "religion": "muslim"
  }
},
{
  "type": "node",
  "id": 3951439190,
  "lat": 9.4883171,
  "lon": 76.3201471,
  "tags": {
    "amenity": "hospital",
    "healthcare": "hospital",
    "name": "ആലപ്പുഴ ബീച്ച് ആശുപത്രി",
    "name:en": "Beach Hospital"
  }
},
{
  "type": "node",
  "id": 3951439279,
  "lat": 9.4876610,
  "lon": 76.3237038,
  "tags": {
    "amenity": "place_of_worship",
    "name": "kunnumpuram palli Makaam",
    "religion": "muslim"
  }
},
{
  "type": "node",
  "id": 3951441973,
  "lat": 9.4876028,
  "lon": 76.3210323,
  "tags": {
    "amenity": "place_of_worship",
    "name": "Sree Devi Temple",
    "religion": "hindu"
  }
},
{
  "type": "node",
  "id": 3951459883,
  "lat": 9.4998831,
  "lon": 76.3461378,
  "tags": {
    "amenity": "place_of_worship",
    "name": "Noor Masjid",
    "religion": "muslim"
  }
},
{
  "type": "node",
  "id": 3951691416,
  "lat": 9.4922248,
  "lon": 76.3300156,
  "tags": {
    "amenity": "place_of_worship",
    "name": "Anna Kamakshi Amma Temple",
    "religion": "hindu"
  }
},
{
  "type": "node",
  "id": 3952121918,
  "lat": 9.4911006,
  "lon": 76.3288119,
  "tags": {
    "amenity": "place_of_worship",
    "name": "Masjidunnasir Ahamadiya Masjid Alappuzha",
    "religion": "muslim"
  }
},
{
  "type": "node",
  "id": 3954896557,
  "lat": 9.4946041,
  "lon": 76.3276365,
  "tags": {
    "amenity": "place_of_worship",
    "name": "Civil Station Ward Masjid",
    "religion": "muslim"
  }
},
{
  "type": "node",
  "id": 3954935366,
  "lat": 9.4935064,
  "lon": 76.3270782,
  "tags": {
    "amenity": "place_of_worship",
    "name": "Masjid Ul Abrar",
    "religion": "muslim"
  }
},
{
  "type": "node",
  "id": 3954955519,
  "lat": 9.4936819,
  "lon": 76.3238516,
  "tags": {
    "amenity": "place_of_worship",
    "name": "Cutchi Memon Noorani Masjid",
    "religion": "muslim"
  }
},
{
  "type": "node",
  "id": 3955480966,
  "lat": 9.4914306,
  "lon": 76.3232172,
  "tags": {
    "amenity": "place_of_worship",
    "name": "Ali Muhamedsha Juma Masjid",
    "religion": "muslim"
  }
},
{
  "type": "node",
  "id": 3955482024,
  "lat": 9.4914743,
  "lon": 76.3231193,
  "tags": {
    "amenity": "school",
    "name": "Ali Muhamedsha Madrssa"
  }
},
{
  "type": "node",
  "id": 3955716203,
  "lat": 9.4925140,
  "lon": 76.3243396,
  "tags": {
    "amenity": "college",
    "name": "Islamic College"
  }
},
{
  "type": "node",
  "id": 3955716204,
  "lat": 9.4934323,
  "lon": 76.3235265,
  "tags": {
    "amenity": "place_of_worship",
    "name": "Ganapathi Temple",
    "religion": "hindu"
  }
},
{
  "type": "node",
  "id": 3960116860,
  "lat": 9.6675146,
  "lon": 76.5556120,
  "tags": {
    "addr:city": "Ettumanur,Kottayam",
    "addr:postcode": "686631",
    "addr:street": "MC Road",
    "amenity": "place_of_worship",
    "description": "Salafi Masjid",
    "name": "masjid",
    "name:ml": "മസ്ജിദ്‌",
    "opening_hours:covid19": "off",
    "religion": "muslim"
  }
},
{
  "type": "node",
  "id": 3960204057,
  "lat": 9.4925822,
  "lon": 76.3244615,
  "tags": {
    "amenity": "place_of_worship",
    "name": "Makam Masjid",
    "religion": "muslim"
  }
},
{
  "type": "node",
  "id": 3960208656,
  "lat": 9.4972691,
  "lon": 76.3251404,
  "tags": {
    "amenity": "place_of_worship",
    "name": "Padinjare Shafi Masjid",
    "religion": "muslim"
  }
},
{
  "type": "node",
  "id": 3962205422,
  "lat": 9.4936683,
  "lon": 76.3283127,
  "tags": {
    "amenity": "college",
    "name": "St Marys Paralal College"
  }
},
{
  "type": "node",
  "id": 3966694914,
  "lat": 9.4942586,
  "lon": 76.3264694,
  "tags": {
    "amenity": "place_of_worship",
    "name": "Masjid",
    "religion": "muslim"
  }
},
{
  "type": "node",
  "id": 3966700267,
  "lat": 9.4950924,
  "lon": 76.3370151,
  "tags": {
    "amenity": "place_of_worship",
    "name": "Saukar Masjid",
    "religion": "muslim",
    "wikidata": "Q127394089"
  }
},
{
  "type": "node",
  "id": 3966700769,
  "lat": 9.4949369,
  "lon": 76.3252410,
  "tags": {
    "amenity": "place_of_worship",
    "name": "CSI Church",
    "religion": "christian"
  }
},
{
  "type": "node",
  "id": 3966724471,
  "lat": 9.4947854,
  "lon": 76.3328466,
  "tags": {
    "amenity": "place_of_worship",
    "name": "Makidusha Juma Masjid",
    "religion": "muslim"
  }
},
{
  "type": "node",
  "id": 3966730409,
  "lat": 9.4927493,
  "lon": 76.3390391,
  "tags": {
    "addr:block": "Alappuzha",
    "addr:district": "Alappuzha",
    "addr:postcode": "688011",
    "addr:village": "Alappuzha West",
    "amenity": "school",
    "name": "Government Higher Secondary School For Girls Alpy"
  }
},
{
  "type": "node",
  "id": 3966737412,
  "lat": 9.4921312,
  "lon": 76.3294475,
  "tags": {
    "amenity": "place_of_worship",
    "name": "Salafi Masjid",
    "religion": "muslim"
  }
},
{
  "type": "node",
  "id": 3966758933,
  "lat": 9.5016428,
  "lon": 76.3425896,
  "tags": {
    "amenity": "community_centre",
    "name": "Municipal Town Square, Alappuzha"
  }
},
{
  "type": "node",
  "id": 3969946183,
  "lat": 9.5011073,
  "lon": 76.3429048,
  "tags": {
    "amenity": "college",
    "name": "Nilima Paralal college"
  }
},
{
  "type": "node",
  "id": 3979387477,
  "lat": 9.4928563,
  "lon": 76.3262330,
  "tags": {
    "addr:block": "Alappuzha",
    "addr:district": "Alappuzha",
    "addr:postcode": "688001",
    "addr:village": "Alappuzha west",
    "amenity": "school",
    "name": "YMA Lower Primary School"
  }
},
{
  "type": "node",
  "id": 3984744125,
  "lat": 9.4887581,
  "lon": 76.3332043,
  "tags": {
    "amenity": "hospital",
    "name": "District Ayurveda Hospital"
  }
},
{
  "type": "node",
  "id": 3990462815,
  "lat": 9.4946622,
  "lon": 76.3300789,
  "tags": {
    "amenity": "community_centre",
    "name": "Rotary community"
  }
},
{
  "type": "node",
  "id": 4007576134,
  "lat": 9.5003310,
  "lon": 76.3398708,
  "tags": {
    "addr:city": "Alappuzha",
    "amenity": "community_centre",
    "name": "Aiswarya Auditorioum"
  }
},
{
  "type": "node",
  "id": 4009468592,
  "lat": 9.4971377,
  "lon": 76.3335277,
  "tags": {
    "amenity": "place_of_worship",
    "name": "Vazhichery Masjid",
    "religion": "muslim"
  }
},
{
  "type": "node",
  "id": 4014294042,
  "lat": 9.4940275,
  "lon": 76.3295993,
  "tags": {
    "amenity": "place_of_worship",
    "name": "AHMM Msjid",
    "religion": "muslim"
  }
},
{
  "type": "node",
  "id": 4014296940,
  "lat": 9.4929810,
  "lon": 76.3337329,
  "tags": {
    "amenity": "place_of_worship",
    "name": "Gader Masjid",
    "religion": "muslim"
  }
},
{
  "type": "node",
  "id": 4032509263,
  "lat": 9.3782216,
  "lon": 76.5083080,
  "tags": {
    "amenity": "place_of_worship",
    "building": "church",
    "denomination": "catholic",
    "name": "St. John's Marthoma Church",
    "religion": "christian"
  }
},
{
  "type": "node",
  "id": 4047071312,
  "lat": 9.6234558,
  "lon": 76.5295344,
  "tags": {
    "amenity": "place_of_worship",
    "name": "Aalthara Ganapathy, Kizhakkenada, Kumaranalloor",
    "religion": "hindu"
  }
},
{
  "type": "node",
  "id": 4047071336,
  "lat": 9.6228065,
  "lon": 76.5280675,
  "tags": {
    "amenity": "school",
    "name": "Devi Vilasam School"
  }
},
{
  "type": "node",
  "id": 4047075499,
  "lat": 9.6094034,
  "lon": 76.5330703,
  "tags": {
    "amenity": "place_of_worship",
    "name": "St.Thomas Orthodox church",
    "religion": "christian"
  }
},
{
  "type": "node",
  "id": 4047406263,
  "lat": 9.6253905,
  "lon": 76.5247348,
  "tags": {
    "amenity": "place_of_worship",
    "name": "Kadannakudy Siva Temple",
    "religion": "hindu"
  }
},
{
  "type": "node",
  "id": 4047575212,
  "lat": 9.6753867,
  "lon": 76.5934154,
  "tags": {
    "addr:city": "Kattachira",
    "amenity": "place_of_worship",
    "name": "St. Xavier's Church",
    "religion": "christian"
  }
},
{
  "type": "node",
  "id": 4047712645,
  "lat": 9.6171015,
  "lon": 76.5059194,
  "tags": {
    "amenity": "place_of_worship",
    "name": "Rahmania masjid",
    "religion": "muslim"
  }
},
{
  "type": "node",
  "id": 4047712752,
  "lat": 9.6181913,
  "lon": 76.5069116,
  "tags": {
    "amenity": "place_of_worship",
    "building": "yes",
    "name": "karikulangara temple",
    "religion": "hindu"
  }
},
{
  "type": "node",
  "id": 4048508275,
  "lat": 9.5940277,
  "lon": 76.5248191,
  "tags": {
    "amenity": "school",
    "name": "ബേക്കർ മെമ്മോറിയൽ ഗേൾസ് ഹയർ സെക്കന്ററി സ്കൂൾ",
    "name:en": "Baker Memorial Girls Higher Secondary School",
    "wikidata": "Q4849180",
    "wikipedia": "en:Baker Memorial Girls High School"
  }
},
{
  "type": "node",
  "id": 4049768920,
  "lat": 9.6387559,
  "lon": 76.5462441,
  "tags": {
    "amenity": "school",
    "name": "Holy Cross High School"
  }
},
{
  "type": "node",
  "id": 4049768921,
  "lat": 9.6340919,
  "lon": 76.5437745,
  "tags": {
    "amenity": "place_of_worship",
    "name": "Mosque",
    "name:ml": "പള്ളി",
    "religion": "muslim"
  }
},
{
  "type": "node",
  "id": 4049927892,
  "lat": 9.6429542,
  "lon": 76.5464016,
  "tags": {
    "amenity": "place_of_worship",
    "religion": "christian"
  }
},
{
  "type": "node",
  "id": 4051486501,
  "lat": 9.7049307,
  "lon": 76.6568805,
  "tags": {
    "addr:city": "Pala",
    "addr:district": "Kottayam",
    "addr:street": "Road near Puliyannoor",
    "amenity": "place_of_worship",
    "name": "Puliyannoor Temple",
    "religion": "hindu"
  }
},
{
  "type": "node",
  "id": 4200090371,
  "lat": 9.6227531,
  "lon": 76.5759533,
  "tags": {
    "amenity": "school",
    "name": "Government Lower Primary School",
    "operator": "Kerala State"
  }
},
{
  "type": "node",
  "id": 4264866090,
  "lat": 9.4088900,
  "lon": 76.4110538,
  "tags": {
    "amenity": "school",
    "name": "St.Marys HSS Champakulam"
  }
},
{
  "type": "node",
  "id": 4264877590,
  "lat": 9.4057458,
  "lon": 76.4131362,
  "tags": {
    "addr:city": "Alappuzha",
    "addr:street": "Champakulam -Kozimukku Road",
    "amenity": "place_of_worship",
    "name": "Padipurakkal Temple",
    "religion": "hindu"
  }
},
{
  "type": "node",
  "id": 4264879089,
  "lat": 9.4064298,
  "lon": 76.4136841,
  "tags": {
    "addr:street": "Champakulam",
    "amenity": "place_of_worship",
    "name": "SNDP-Guru Mandiram",
    "religion": "hindu"
  }
},
{
  "type": "node",
  "id": 4292131491,
  "lat": 9.6171755,
  "lon": 76.4937155,
  "tags": {
    "addr:street": "Aymanam-Kallumkathra Road",
    "amenity": "school",
    "name": "Holy Cross School, Aymanam"
  }
},
{
  "type": "node",
  "id": 4292164191,
  "lat": 9.5958778,
  "lon": 76.5274593,
  "tags": {
    "amenity": "place_of_worship",
    "name": "Saint Antony's Church, Nagampadam",
    "religion": "christian"
  }
},
{
  "type": "node",
  "id": 4326494789,
  "lat": 9.5710812,
  "lon": 76.6296959,
  "tags": {
    "addr:street": "Pampady",
    "amenity": "place_of_worship",
    "building": "mosque",
    "name": "Juma Masjid Pampady",
    "religion": "muslim"
  }
},
{
  "type": "node",
  "id": 4334923593,
  "lat": 9.6089283,
  "lon": 76.5550574,
  "tags": {
    "amenity": "community_centre",
    "name": "Govt Community Center Parampuzha"
  }
},
{
  "type": "node",
  "id": 4388733000,
  "lat": 9.6442139,
  "lon": 76.5907154,
  "tags": {
    "amenity": "place_of_worship",
    "name": "Mangalavartha church",
    "name:en": "Mangalavartha church"
  }
},
{
  "type": "node",
  "id": 4398393090,
  "lat": 9.5622049,
  "lon": 76.6909461,
  "tags": {
    "addr:postcode": "686516",
    "addr:street": "NH220",
    "amenity": "place_of_worship",
    "name": "St.Mary's Church",
    "name:en": "St.Mary's Church"
  }
},
{
  "type": "node",
  "id": 4446968191,
  "lat": 9.5614379,
  "lon": 76.5744560,
  "tags": {
    "addr:street": "Manarcadu-Puthuppally road",
    "amenity": "school",
    "name": "IHRD THSS",
    "name:en": "IHRD THSS"
  }
},
{
  "type": "node",
  "id": 4447621632,
  "lat": 9.6657098,
  "lon": 76.6777773,
  "tags": {
    "alt_name": "Aayilyakunnu Devi Temple",
    "amenity": "place_of_worship",
    "name": "Ayilyakunnu Devi Temple",
    "name:ml": "ആയില്യക്കുന്ന് ദേവി ക്ഷേത്രം",
    "religion": "hindu"
  }
},
{
  "type": "node",
  "id": 4448646257,
  "lat": 9.7093272,
  "lon": 76.6849175,
  "tags": {
    "amenity": "place_of_worship",
    "name": "Devi Temple, Murikkumpuzha",
    "religion": "hindu"
  }
},
{
  "type": "node",
  "id": 4455848735,
  "lat": 9.4074343,
  "lon": 76.5845259,
  "tags": {
    "amenity": "place_of_worship",
    "name": "Brethren Church",
    "religion": "christian"
  }
},
{
  "type": "node",
  "id": 4458777797,
  "lat": 9.5239350,
  "lon": 76.5369870,
  "tags": {
    "addr:postcode": "686533",
    "addr:street": "panachikadu",
    "amenity": "school",
    "name": "Sadanam NSS school jun chingavanam",
    "name:en": "Sadanam NSS school jun chingavanam"
  }
},
{
  "type": "node",
  "id": 4487004722,
  "lat": 9.5111691,
  "lon": 76.6965127,
  "tags": {
    "amenity": "school",
    "name": "Devaswom Board High School Kangazha,Pathanad"
  }
},
{
  "type": "node",
  "id": 4501727512,
  "lat": 9.6160686,
  "lon": 76.5307119,
  "tags": {
    "amenity": "school",
    "name": "Holy Family L P School"
  }
},
{
  "type": "node",
  "id": 4502345956,
  "lat": 9.4492439,
  "lon": 76.5498631,
  "tags": {
    "amenity": "place_of_worship",
    "denomination": "catholic",
    "name": "Mary Mount Church",
    "religion": "christian"
  }
},
{
  "type": "node",
  "id": 4504641334,
  "lat": 9.5379024,
  "lon": 76.7223082,
  "tags": {
    "amenity": "place_of_worship",
    "denomination": "catholic",
    "name": "Fathima Matha Church",
    "religion": "christian"
  }
},
{
  "type": "node",
  "id": 4508528678,
  "lat": 9.4137436,
  "lon": 76.5809851,
  "tags": {
    "amenity": "school",
    "description": "School",
    "name": "Believers Church Residential School",
    "wikidata": "Q19457310",
    "wikipedia": "en:Believers Church Residential School, Thiruvalla"
  }
},
{
  "type": "node",
  "id": 4508528679,
  "lat": 9.4082616,
  "lon": 76.5800630,
  "tags": {
    "amenity": "place_of_worship",
    "name": "St. Thomas Believers Church Cathedral",
    "religion": "christian"
  }
},
{
  "type": "node",
  "id": 4561119593,
  "lat": 9.5719192,
  "lon": 76.3474785,
  "tags": {
    "amenity": "place_of_worship",
    "name": "St. Mary Church",
    "name:en": "St. Mary Church",
    "religion": "christian"
  }
},
{
  "type": "node",
  "id": 4569976392,
  "lat": 9.5557030,
  "lon": 76.7176010,
  "tags": {
    "amenity": "place_of_worship",
    "denomination": "hindu",
    "name": "Bhagavathikkavu Sree Bhadra Kshethram",
    "name:ml": "ഭഗവതിക്കാവ് ശ്രീ ഭദ്രാ ക്ഷേത്രം",
    "religion": "hindu"
  }
},
{
  "type": "node",
  "id": 4611694315,
  "lat": 9.6111635,
  "lon": 76.5477572,
  "tags": {
    "amenity": "place_of_worship",
    "name": "Krodhoth Sree Krishna Temple",
    "religion": "hindu"
  }
},
{
  "type": "node",
  "id": 4612317989,
  "lat": 9.3172238,
  "lon": 76.6095855,
  "tags": {
    "addr:postcode": "689121",
    "addr:street": "Railway Station Road",
    "amenity": "place_of_worship",
    "name": "Town AG Church Chengannur",
    "name:en": "Town AG Church Chengannur",
    "opening_hours": "24/7",
    "phone": "+914792455736",
    "religion": "christian"
  }
},
{
  "type": "node",
  "id": 4643365389,
  "lat": 9.4368579,
  "lon": 76.3450829,
  "tags": {
    "amenity": "school",
    "name": "Aravukadu private industrial training institute",
    "name:en": "Aravukadu private industrial training institute"
  }
},
{
  "type": "node",
  "id": 4647744890,
  "lat": 9.5226873,
  "lon": 76.5929308,
  "tags": {
    "amenity": "place_of_worship",
    "denomination": "roman_catholic",
    "name": "St. Mary's Church, Eravuchira",
    "religion": "christian"
  }
},
{
  "type": "node",
  "id": 4647744892,
  "lat": 9.5249595,
  "lon": 76.5935799,
  "tags": {
    "amenity": "community_centre",
    "name": "St. Mary's Church, Parish Hall"
  }
},
{
  "type": "node",
  "id": 4648520131,
  "lat": 9.5347103,
  "lon": 76.5881360,
  "tags": {
    "amenity": "place_of_worship",
    "denomination": "orthodox",
    "name": "Chakkan Chira Church",
    "religion": "christian"
  }
},
{
  "type": "node",
  "id": 4648614007,
  "lat": 9.5256527,
  "lon": 76.6022545,
  "tags": {
    "amenity": "place_of_worship",
    "name": "Maha Shiva Temple",
    "religion": "hindu"
  }
},
{
  "type": "node",
  "id": 4648654572,
  "lat": 9.4976589,
  "lon": 76.3442205,
  "tags": {
    "amenity": "community_centre",
    "name": "Carmel Hall"
  }
},
{
  "type": "node",
  "id": 4656550390,
  "lat": 9.7137162,
  "lon": 76.6748223,
  "tags": {
    "addr:housenumber": "129",
    "addr:street": "PuthenPallikkunnu Bypass Road",
    "amenity": "community_centre",
    "email": "starvisionkidangoor@gmail.com",
    "name": "Star vision pala",
    "name:en": "Star vision pala",
    "phone": "+91-4822239727"
  }
},
{
  "type": "node",
  "id": 4666904629,
  "lat": 9.5409110,
  "lon": 76.5883445,
  "tags": {
    "addr:street": "Kottayam-Kozhencherry Highway",
    "amenity": "place_of_worship",
    "name": "Church, Ancherry",
    "religion": "christian"
  }
},
{
  "type": "node",
  "id": 4670568466,
  "lat": 9.5045813,
  "lon": 76.3526858,
  "tags": {
    "amenity": "place_of_worship",
    "denomination": "roman_catholic",
    "name": "Lake Chapel",
    "name:ml": "കായല്‍ കുരിശടി",
    "religion": "christian"
  }
},
{
  "type": "node",
  "id": 4680131349,
  "lat": 9.4486533,
  "lon": 76.4394530,
  "tags": {
    "amenity": "school",
    "name": "Little Flower Girls High School, Pulinkunnu"
  }
},
{
  "type": "node",
  "id": 4690904888,
  "lat": 9.5990663,
  "lon": 76.5085426,
  "tags": {
    "addr:place": "edackat",
    "amenity": "place_of_worship",
    "denomination": "catholic",
    "name": "ST. George Knanaya Catholic Church",
    "religion": "christian"
  }
},
{
  "type": "node",
  "id": 4741039522,
  "lat": 9.6419180,
  "lon": 76.6488733,
  "tags": {
    "addr:postcode": "686564",
    "addr:street": "Kozhuvanal Mattakkara Ayarkunnam Road",
    "amenity": "school",
    "name": "Toms College of Engineering for Startups.Mattakkara",
    "opening_hours": "Mo-Sa 08:45-17:00",
    "phone": "+91-4812547400"
  }
},
{
  "type": "node",
  "id": 4773912364,
  "lat": 9.5066247,
  "lon": 76.7311323,
  "tags": {
    "amenity": "hospital",
    "name": "Sushalayam Medical Trust Hospital"
  }
},
{
  "type": "node",
  "id": 4776139132,
  "lat": 9.5185705,
  "lon": 76.7378889,
  "tags": {
    "amenity": "place_of_worship",
    "denomination": "jacobite",
    "name": "Jacobite church",
    "religion": "christian"
  }
},
{
  "type": "node",
  "id": 4776139133,
  "lat": 9.5201173,
  "lon": 76.7343527,
  "tags": {
    "amenity": "place_of_worship",
    "denomination": "syriac_orthodox",
    "name": "Marthoma Church",
    "religion": "christian"
  }
},
{
  "type": "node",
  "id": 4776139134,
  "lat": 9.5251946,
  "lon": 76.7234722,
  "tags": {
    "addr:city": "Ullayam",
    "amenity": "place_of_worship",
    "denomination": "syriac_orthodox",
    "name": "Saint George Jacobite Church",
    "religion": "christian"
  }
},
{
  "type": "node",
  "id": 4824271036,
  "lat": 9.7053372,
  "lon": 76.6485424,
  "tags": {
    "amenity": "school",
    "grades": "1-4",
    "name": "St. Michaels  L.P. School, Kuruvinal"
  }
},
{
  "type": "node",
  "id": 4829730725,
  "lat": 9.3150155,
  "lon": 76.5287925,
  "tags": {
    "amenity": "place_of_worship",
    "name": "SubramanianTemple",
    "name:en": "SubramanianTemple"
  }
},
{
  "type": "node",
  "id": 4829730733,
  "lat": 9.2534165,
  "lon": 76.5442114,
  "tags": {
    "amenity": "community_centre",
    "name": "NSSTalukUnionOffice",
    "name:en": "NSSTalukUnionOffice"
  }
},
{
  "type": "node",
  "id": 4829733424,
  "lat": 9.1822483,
  "lon": 76.5035709,
  "tags": {
    "amenity": "place_of_worship",
    "name": "Theertham Pozhichalummoodu Ammankovil",
    "name:en": "Theertham Pozhichalummoodu MariAmmanKovil",
    "name:ml": "തീർത്ഥം പോഴിച്ചാലുംമൂട് മാരിയമ്മകോവിൽ",
    "religion": "hindu"
  }
},
{
  "type": "node",
  "id": 4829733522,
  "lat": 9.2238392,
  "lon": 76.5179694,
  "tags": {
    "amenity": "community_centre",
    "name": "13NoNSSKarayogam",
    "name:en": "13NoNSSKarayogam"
  }
},
{
  "type": "node",
  "id": 4829733523,
  "lat": 9.2291461,
  "lon": 76.5178833,
  "tags": {
    "amenity": "community_centre",
    "name": "DivyaAuditorium",
    "name:en": "DivyaAuditorium"
  }
},
{
  "type": "node",
  "id": 4829734521,
  "lat": 9.1809358,
  "lon": 76.4940600,
  "tags": {
    "amenity": "school",
    "name": "TAMotherLand",
    "name:en": "TAMotherLand"
  }
},
{
  "type": "node",
  "id": 4829735626,
  "lat": 9.2464919,
  "lon": 76.5403186,
  "tags": {
    "amenity": "community_centre",
    "name": "BMS Office",
    "name:en": "BMS Office"
  }
},
{
  "type": "node",
  "id": 4829735634,
  "lat": 9.2311758,
  "lon": 76.6094948,
  "tags": {
    "amenity": "place_of_worship",
    "name": "Mahadev Temple",
    "name:en": "Mahadev Temple"
  }
},
{
  "type": "node",
  "id": 4829735643,
  "lat": 9.3019559,
  "lon": 76.5857462,
  "tags": {
    "addr:street": "Puliyoor-Mavelikara Road",
    "amenity": "place_of_worship",
    "name": "Thripuliyoor Mahavishnu Temple",
    "name:en": "Thripuliyoor Mahavishnu Temple",
    "religion": "hindu"
  }
},
{
  "type": "node",
  "id": 4829735844,
  "lat": 9.2078744,
  "lon": 76.4952876,
  "tags": {
    "amenity": "place_of_worship",
    "name": "MudampadiyilTemple",
    "name:en": "MudampadiyilTemple"
  }
},
{
  "type": "node",
  "id": 4829735845,
  "lat": 9.2059170,
  "lon": 76.4954899,
  "tags": {
    "amenity": "place_of_worship",
    "name": "KaatturTemple",
    "name:en": "KaatturTemple"
  }
},
{
  "type": "node",
  "id": 4829735847,
  "lat": 9.2186282,
  "lon": 76.5013800,
  "tags": {
    "amenity": "community_centre",
    "name": "NSSKarayogam",
    "name:en": "NSSKarayogam"
  }
},
{
  "type": "node",
  "id": 4829744721,
  "lat": 9.2274848,
  "lon": 76.5173394,
  "tags": {
    "amenity": "community_centre",
    "name": "Hindu Matha Convention",
    "name:en": "Hindu Matha Convention"
  }
},
{
  "type": "node",
  "id": 4829744729,
  "lat": 9.2443521,
  "lon": 76.5325216,
  "tags": {
    "amenity": "school",
    "name": "VidyadirajaCentralSchool",
    "name:en": "VidyadirajaCentralSchool"
  }
},
{
  "type": "node",
  "id": 4829744732,
  "lat": 9.3347862,
  "lon": 76.5336866,
  "tags": {
    "amenity": "place_of_worship",
    "name": "MahaLekshmiTemple",
    "name:en": "MahaLekshmiTemple",
    "name:ml": "മഹാലക്ഷ്മിഅമ്പലം",
    "religion": "hindu"
  }
},
{
  "type": "node",
  "id": 4829744733,
  "lat": 9.3669564,
  "lon": 76.5147659,
  "tags": {
    "amenity": "place_of_worship",
    "name": "Chakkulathukavu Devi Temple",
    "name:en": "ChakkulathukavuDeviTemple",
    "religion": "hindu"
  }
},
{
  "type": "node",
  "id": 4829745222,
  "lat": 9.2333952,
  "lon": 76.5165263,
  "tags": {
    "amenity": "school",
    "name": "HighSchoolChettikulangara",
    "name:en": "HighSchoolChettikulangara",
    "wikidata": "Q87478557"
  }
},
{
  "type": "node",
  "id": 4829745225,
  "lat": 9.2893730,
  "lon": 76.5254121,
  "tags": {
    "amenity": "place_of_worship",
    "name": "TripenthuraMahadevaTemple",
    "name:en": "TripenthuraMahadevaTemple"
  }
},
{
  "type": "node",
  "id": 4829745226,
  "lat": 9.3178985,
  "lon": 76.5339189,
  "tags": {
    "amenity": "place_of_worship",
    "name": "Memadom Sreekrishna Swami Temple",
    "name:en": "SrikrishnaTemple"
  }
},
{
  "type": "node",
  "id": 4829745230,
  "lat": 9.2026740,
  "lon": 76.5178734,
  "tags": {
    "amenity": "place_of_worship",
    "name": "Vilayil Devi Temple",
    "name:en": "Vilayil Devi Temple",
    "religion": "hindu"
  }
},
{
  "type": "node",
  "id": 4829745323,
  "lat": 9.3172113,
  "lon": 76.5336604,
  "tags": {
    "amenity": "community_centre",
    "name": "NSS Karayogam",
    "name:en": "NSS Karayogam"
  }
},
{
  "type": "node",
  "id": 4829746321,
  "lat": 9.2483093,
  "lon": 76.5338993,
  "tags": {
    "amenity": "community_centre",
    "name": "TalukAuditorium",
    "name:en": "TalukAuditorium"
  }
},
{
  "type": "node",
  "id": 4829752224,
  "lat": 9.2560609,
  "lon": 76.5740415,
  "tags": {
    "amenity": "place_of_worship",
    "name": "KunamDhramaSashtaTemple",
    "name:en": "KunamDhramaSashtaTemple",
    "religion": "hindu"
  }
},
{
  "type": "node",
  "id": 4829752225,
  "lat": 9.2345491,
  "lon": 76.6384230,
  "tags": {
    "amenity": "place_of_worship",
    "name": "AttuvaGangashavraMahaDevaTemple",
    "name:en": "AttuvaGangashavraMahaDevaTemple"
  }
},
{
  "type": "node",
  "id": 4829752226,
  "lat": 9.2316937,
  "lon": 76.6311556,
  "tags": {
    "amenity": "school",
    "name": "VivekanandaVidyaPeedam",
    "name:en": "VivekanandaVidyaPeedam"
  }
},
{
  "type": "node",
  "id": 4829752234,
  "lat": 9.2834647,
  "lon": 76.5692025,
  "tags": {
    "amenity": "place_of_worship",
    "name": "VavakavuDeviTemple",
    "name:en": "VavakavuDeviTemple"
  }
},
{
  "type": "node",
  "id": 4829753421,
  "lat": 9.1935310,
  "lon": 76.4992943,
  "tags": {
    "amenity": "place_of_worship",
    "name": "EruvaSrikrishnaTemple",
    "name:en": "EruvaSrikrishnaTemple"
  }
},
{
  "type": "node",
  "id": 4841844207,
  "lat": 9.4598659,
  "lon": 76.5537254,
  "tags": {
    "addr:street": "Chethipuzha, Kurishmoodu Road",
    "amenity": "clinic",
    "name": "ECHS Polyclinic",
    "website": "https://echs.gov.in/"
  }
},
{
  "type": "node",
  "id": 4843802486,
  "lat": 9.3840006,
  "lon": 76.5755276,
  "tags": {
    "amenity": "community_centre",
    "name": "VGM Hall"
  }
},
{
  "type": "node",
  "id": 4843802487,
  "lat": 9.3833196,
  "lon": 76.5747171,
  "tags": {
    "addr:postcode": "689101",
    "addr:street": "MC Road",
    "amenity": "community_centre",
    "location": "9.3833057,76.5746745",
    "name": "AMM Auditorium",
    "operator": "PRIVATE",
    "operator:type": "private",
    "phone": "+91-4692630449"
  }
},
{
  "type": "node",
  "id": 5061423621,
  "lat": 9.5760217,
  "lon": 76.3101019,
  "tags": {
    "amenity": "place_of_worship",
    "name": "Korthusherri Temple",
    "name:en": "Korthusherri Temple",
    "religion": "hindu"
  }
},
{
  "type": "node",
  "id": 5080742221,
  "lat": 9.6288402,
  "lon": 76.5275388,
  "tags": {
    "amenity": "place_of_worship",
    "denomination": "Lord_Dharma_Shasta",
    "religion": "hindu"
  }
},
{
  "type": "node",
  "id": 5142974356,
  "lat": 9.3102856,
  "lon": 76.5636571,
  "tags": {
    "amenity": "place_of_worship",
    "name": "Sree Kunnathoorkulangara Temple",
    "religion": "hindu"
  }
},
{
  "type": "node",
  "id": 5142974357,
  "lat": 9.3085388,
  "lon": 76.5577383,
  "tags": {
    "amenity": "place_of_worship",
    "name": "Padinjattincheril Temple",
    "religion": "hindu"
  }
},
{
  "type": "node",
  "id": 5142974389,
  "lat": 9.3210488,
  "lon": 76.5539806,
  "tags": {
    "addr:city": "Budhanoor",
    "addr:postcode": "689510",
    "addr:street": "Budhanoor Illimala (Pandanad) Road",
    "amenity": "place_of_worship",
    "name": "Sree Sakthikulangara Devi Temple",
    "religion": "hindu"
  }
},
{
  "type": "node",
  "id": 5161070709,
  "lat": 9.3138590,
  "lon": 76.5404622,
  "tags": {
    "amenity": "place_of_worship",
    "name": "Sree Kurattikkadu Pattambalam",
    "religion": "hindu"
  }
},
{
  "type": "node",
  "id": 5179559124,
  "lat": 9.5554497,
  "lon": 76.5288324,
  "tags": {
    "addr:postcode": "686012",
    "amenity": "school",
    "name": "Emmaus Public School"
  }
},
{
  "type": "node",
  "id": 5183243754,
  "lat": 9.3686653,
  "lon": 76.5728013,
  "tags": {
    "amenity": "place_of_worship",
    "name": "Sreevallaba swami Aarattu Kadavu",
    "religion": "hindu"
  }
},
{
  "type": "node",
  "id": 5183392036,
  "lat": 9.3734183,
  "lon": 76.5635565,
  "tags": {
    "amenity": "school",
    "name": "Government Model Upper Primary Girls School"
  }
},
{
  "type": "node",
  "id": 5184086616,
  "lat": 9.3709628,
  "lon": 76.5777800,
  "tags": {
    "addr:city": "Thukalassery",
    "amenity": "community_centre",
    "name": "St. Thomas CSI Church Parish Hall"
  }
},
{
  "type": "node",
  "id": 5184086617,
  "lat": 9.3711798,
  "lon": 76.5773616,
  "tags": {
    "addr:city": "Thukalassery",
    "amenity": "place_of_worship",
    "name": "St. Thomas CSI Church",
    "religion": "christian"
  }
},
{
  "type": "node",
  "id": 5186583036,
  "lat": 9.3671828,
  "lon": 76.5744911,
  "tags": {
    "addr:city": "Venpala",
    "amenity": "place_of_worship",
    "name": "St George Knanaya Chruch",
    "religion": "christian"
  }
},
{
  "type": "node",
  "id": 5188420472,
  "lat": 9.3441142,
  "lon": 76.5774799,
  "tags": {
    "amenity": "school",
    "name": "Thiruvanvandoor School Ground"
  }
},
{
  "type": "node",
  "id": 5188504200,
  "lat": 9.3558530,
  "lon": 76.5503767,
  "tags": {
    "addr:city": "Kallunkal, Thiruvalla",
    "amenity": "place_of_worship",
    "name": "St George orthodox church kallunkal",
    "religion": "christian"
  }
},
{
  "type": "node",
  "id": 5188504201,
  "lat": 9.3558278,
  "lon": 76.5523830,
  "tags": {
    "addr:city": "Nedumpuram",
    "amenity": "place_of_worship",
    "name": "Chanikkavu Devi Temple, Kallunkal",
    "religion": "hindu"
  }
},
{
  "type": "node",
  "id": 5206868903,
  "lat": 9.3787751,
  "lon": 76.5657402,
  "tags": {
    "addr:city": "Thiruvalla",
    "amenity": "community_centre",
    "name": "Paliakara St.George Orthodox Parish Hall"
  }
},
{
  "type": "node",
  "id": 5208643999,
  "lat": 9.3686014,
  "lon": 76.5596517,
  "tags": {
    "addr:city": "Kizhakkummuri",
    "addr:street": "Nenmelikkavu Road",
    "amenity": "place_of_worship",
    "name": "Nenmelikkavu Devi Temple",
    "religion": "hindu"
  }
},
{
  "type": "node",
  "id": 5208644004,
  "lat": 9.3703639,
  "lon": 76.5549512,
  "tags": {
    "amenity": "place_of_worship",
    "name": "Thiruvampady Temple",
    "religion": "hindu"
  }
},
{
  "type": "node",
  "id": 5208862047,
  "lat": 9.3633098,
  "lon": 76.5677802,
  "tags": {
    "addr:city": "Venapala, Nedumpuram",
    "addr:postcode": "689102",
    "amenity": "place_of_worship",
    "name": "Nallursthanathu kaavu Devi Temple",
    "religion": "hindu"
  }
},
{
  "type": "node",
  "id": 5208862099,
  "lat": 9.3685042,
  "lon": 76.5650604,
  "tags": {
    "amenity": "place_of_worship",
    "name": "Purushottamananda Ashrama",
    "religion": "hindu"
  }
},
{
  "type": "node",
  "id": 5209015472,
  "lat": 9.3779313,
  "lon": 76.5580944,
  "tags": {
    "amenity": "place_of_worship",
    "name": "St.Mulk Orthodox Church",
    "religion": "christian"
  }
},
{
  "type": "node",
  "id": 5209015476,
  "lat": 9.3813292,
  "lon": 76.5582969,
  "tags": {
    "amenity": "place_of_worship",
    "name": "Karunaattukaavu Devi Temple",
    "religion": "hindu"
  }
},
{
  "type": "node",
  "id": 5209015477,
  "lat": 9.3810910,
  "lon": 76.5581923,
  "tags": {
    "amenity": "place_of_worship",
    "name": "Sri Krishna SwamiTemple",
    "religion": "hindu"
  }
},
{
  "type": "node",
  "id": 5209015478,
  "lat": 9.3815905,
  "lon": 76.5609992,
  "tags": {
    "amenity": "place_of_worship",
    "name": "Nedumpallil Sree Badrakaali Devi Temple",
    "religion": "hindu"
  }
},
{
  "type": "node",
  "id": 5209025503,
  "lat": 9.3844151,
  "lon": 76.5486382,
  "tags": {
    "addr:city": "Peringara",
    "amenity": "place_of_worship",
    "name": "Puthukkulangara Devi Temple",
    "religion": "hindu"
  }
},
{
  "type": "node",
  "id": 5209025632,
  "lat": 9.3891101,
  "lon": 76.5398124,
  "tags": {
    "amenity": "place_of_worship",
    "name": "Karakkal St.George Orthodox Church",
    "religion": "christian"
  }
},
{
  "type": "node",
  "id": 5210797043,
  "lat": 9.3456928,
  "lon": 76.5438117,
  "tags": {
    "addr:city": "Alumthurutthi",
    "amenity": "place_of_worship",
    "name": "Ulabhethu Srikrishna Temple",
    "religion": "hindu"
  }
},
{
  "type": "node",
  "id": 5210797118,
  "lat": 9.3490506,
  "lon": 76.5385435,
  "tags": {
    "addr:city": "Alumthurutthi",
    "amenity": "place_of_worship",
    "name": "Mutharamman Kovil",
    "religion": "hindu"
  }
},
{
  "type": "node",
  "id": 5303549623,
  "lat": 9.3126671,
  "lon": 76.7326492,
  "tags": {
    "amenity": "place_of_worship"
  }
},
{
  "type": "node",
  "id": 5304677625,
  "lat": 9.2414752,
  "lon": 76.5860030,
  "tags": {
    "addr:postcode": "690108",
    "addr:street": "Kollam - Teni Highway",
    "amenity": "place_of_worship",
    "name": "Sreenarayana gurumandiram"
  }
},
{
  "type": "node",
  "id": 5304677651,
  "lat": 9.2310945,
  "lon": 76.5942750,
  "tags": {
    "addr:city": "mankamkuzhy",
    "addr:housenumber": "Kochalummoodu - Pandalam Rd, Vettiyar,",
    "addr:postcode": "690558",
    "addr:street": "Mavelikkara - Pandalam",
    "amenity": "place_of_worship",
    "name": "St. Mary's Malankara Church",
    "religion": "christian"
  }
},
{
  "type": "node",
  "id": 5308579110,
  "lat": 9.6612745,
  "lon": 76.3379278,
  "tags": {
    "amenity": "school",
    "description": "ICSE School",
    "name": "Layfalo public school"
  }
},
{
  "type": "node",
  "id": 5308579363,
  "lat": 9.3543646,
  "lon": 76.3654365,
  "tags": {
    "amenity": "place_of_worship",
    "denomination": "roman_catholic",
    "name": "marsleeva church",
    "religion": "christian"
  }
},
{
  "type": "node",
  "id": 5308579364,
  "lat": 9.4091679,
  "lon": 76.3505088,
  "tags": {
    "amenity": "school",
    "name": "SDV Government upper Primary School",
    "wikidata": "Q87478342"
  }
},
{
  "type": "node",
  "id": 5397634022,
  "lat": 9.6017465,
  "lon": 76.3165362,
  "tags": {
    "addr:street": "Railway station Road",
    "amenity": "place_of_worship",
    "name": "Mararikulam Maha Deva Temple",
    "religion": "hindu"
  }
},
{
  "type": "node",
  "id": 5423169628,
  "lat": 9.3004031,
  "lon": 76.6264753,
  "tags": {
    "amenity": "school",
    "name": "MMAR School",
    "operator:type": "private"
  }
},
{
  "type": "node",
  "id": 5429872381,
  "lat": 9.3159720,
  "lon": 76.6165509,
  "tags": {
    "amenity": "place_of_worship",
    "name": "Sreenarayana Guru Mandiram"
  }
},
{
  "type": "node",
  "id": 5478524621,
  "lat": 9.5679508,
  "lon": 76.3060924,
  "tags": {
    "amenity": "school",
    "name": "Sivananda yoga Aleppey"
  }
},
{
  "type": "node",
  "id": 5502360389,
  "lat": 9.4479028,
  "lon": 76.5445494,
  "tags": {
    "amenity": "place_of_worship",
    "denomination": "orthodox",
    "name": "Saint Thomas Marthoma church",
    "religion": "christian"
  }
},
{
  "type": "node",
  "id": 5510944374,
  "lat": 9.6494863,
  "lon": 76.3804208,
  "tags": {
    "addr:city": "cherthala",
    "addr:housenumber": "kannankara",
    "addr:street": "Kannankara-Boat Jetty Road",
    "amenity": "place_of_worship",
    "denomination": "catholic",
    "name": "ST.Xavier's Church Kannankara",
    "religion": "christian"
  }
},
{
  "type": "node",
  "id": 5605052513,
  "lat": 9.6039790,
  "lon": 76.6946769,
  "tags": {
    "amenity": "school",
    "min_age": "10",
    "name": "St Thomas High School Anikkad"
  }
},
{
  "type": "node",
  "id": 5607919468,
  "lat": 9.6194409,
  "lon": 76.5688960,
  "tags": {
    "addr:city": "Kottayam",
    "addr:postcode": "686019",
    "amenity": "place_of_worship",
    "denomination": "Jacobite_Syrian_Orthodox",
    "name": "St. Mary's Jacobite Syrian Orthodox Church, Thiruvanchoor",
    "religion": "christian"
  }
},
{
  "type": "node",
  "id": 5632374178,
  "lat": 9.6024205,
  "lon": 76.3086342,
  "tags": {
    "amenity": "place_of_worship",
    "name": "Puthukulangara temple",
    "religion": "hindu"
  }
},
{
  "type": "node",
  "id": 5632374180,
  "lat": 9.5925120,
  "lon": 76.3091016,
  "tags": {
    "amenity": "place_of_worship",
    "name": "Sri Ramachandravilasm Devi Temple",
    "religion": "hindu"
  }
},
{
  "type": "node",
  "id": 5644419348,
  "lat": 9.5820411,
  "lon": 76.3080417,
  "tags": {
    "amenity": "place_of_worship",
    "name": "Pollethai Church",
    "religion": "christian"
  }
},
{
  "type": "node",
  "id": 5644419349,
  "lat": 9.5981456,
  "lon": 76.3037249,
  "tags": {
    "amenity": "place_of_worship",
    "name": "Mararikkulam Church",
    "religion": "christian"
  }
},
{
  "type": "node",
  "id": 5644434311,
  "lat": 9.5829675,
  "lon": 76.3077151,
  "tags": {
    "amenity": "school",
    "name": "Pollethai School"
  }
},
{
  "type": "node",
  "id": 5645278421,
  "lat": 9.5647984,
  "lon": 76.3100952,
  "tags": {
    "amenity": "place_of_worship",
    "name": "St. Michael's Forane Church",
    "religion": "christian"
  }
},
{
  "type": "node",
  "id": 5645278820,
  "lat": 9.5682866,
  "lon": 76.3098474,
  "tags": {
    "amenity": "place_of_worship",
    "name": "Panakkal Temple",
    "religion": "hindu"
  }
},
{
  "type": "node",
  "id": 5647448275,
  "lat": 9.6211486,
  "lon": 76.3080740,
  "tags": {
    "amenity": "place_of_worship",
    "name": "Poklasseri Temple",
    "religion": "hindu"
  }
},
{
  "type": "node",
  "id": 5647513328,
  "lat": 9.6099471,
  "lon": 76.3183974,
  "tags": {
    "amenity": "place_of_worship",
    "name": "Poopallikkavu temple",
    "religion": "hindu"
  }
},
{
  "type": "node",
  "id": 5647513329,
  "lat": 9.6095028,
  "lon": 76.3194767,
  "tags": {
    "amenity": "place_of_worship",
    "religion": "hindu"
  }
},
{
  "type": "node",
  "id": 5647513330,
  "lat": 9.6087286,
  "lon": 76.3178949,
  "tags": {
    "amenity": "place_of_worship",
    "religion": "hindu"
  }
},
{
  "type": "node",
  "id": 5647513331,
  "lat": 9.6068476,
  "lon": 76.3183902,
  "tags": {
    "amenity": "place_of_worship",
    "religion": "hindu"
  }
},
{
  "type": "node",
  "id": 5647513332,
  "lat": 9.6080709,
  "lon": 76.3214843,
  "tags": {
    "amenity": "place_of_worship",
    "religion": "hindu"
  }
},
{
  "type": "node",
  "id": 5647527031,
  "lat": 9.5671028,
  "lon": 76.3172603,
  "tags": {
    "amenity": "place_of_worship",
    "name": "Hanuman Swami Temple",
    "religion": "hindu",
    "wikidata": "Q122618194"
  }
},
{
  "type": "node",
  "id": 5647527032,
  "lat": 9.5645584,
  "lon": 76.3165115,
  "tags": {
    "amenity": "place_of_worship",
    "religion": "hindu"
  }
},
{
  "type": "node",
  "id": 5647527033,
  "lat": 9.5681615,
  "lon": 76.3144455,
  "tags": {
    "amenity": "place_of_worship",
    "religion": "hindu"
  }
},
{
  "type": "node",
  "id": 5656944492,
  "lat": 9.5677936,
  "lon": 76.3256053,
  "tags": {
    "amenity": "place_of_worship",
    "religion": "hindu"
  }
},
{
  "type": "node",
  "id": 5656944493,
  "lat": 9.5694217,
  "lon": 76.3205954,
  "tags": {
    "amenity": "place_of_worship",
    "name": "Marankulangara Devi Temple",
    "religion": "hindu",
    "wikidata": "Q122618255"
  }
},
{
  "type": "node",
  "id": 5656944494,
  "lat": 9.5749170,
  "lon": 76.3266400,
  "tags": {
    "amenity": "place_of_worship",
    "religion": "hindu"
  }
},
{
  "type": "node",
  "id": 5656944495,
  "lat": 9.5770987,
  "lon": 76.3319417,
  "tags": {
    "amenity": "place_of_worship",
    "religion": "hindu"
  }
},
{
  "type": "node",
  "id": 5656987796,
  "lat": 9.5800051,
  "lon": 76.3208061,
  "tags": {
    "amenity": "place_of_worship",
    "name": "Preethikulangara Temple",
    "religion": "hindu"
  }
},
{
  "type": "node",
  "id": 5657053458,
  "lat": 9.6642188,
  "lon": 76.3006444,
  "tags": {
    "amenity": "place_of_worship",
    "religion": "christian"
  }
},
{
  "type": "node",
  "id": 5739304818,
  "lat": 9.2586039,
  "lon": 76.6742377,
  "tags": {
    "addr:postcode": "689503",
    "amenity": "place_of_worship",
    "denomination": "hindu",
    "name": "Ullannoor Sree Bhadra Devi Temple",
    "opening_hours": "6-10",
    "religion": "hindu",
    "service_times": "6-9,5-10",
    "wheelchair": "no"
  }
},
{
  "type": "node",
  "id": 5789214037,
  "lat": 9.6716048,
  "lon": 76.6693578,
  "tags": {
    "addr:city": "Mevada",
    "addr:postcode": "686573",
    "addr:street": "Mutholy - Kodungoor Road",
    "amenity": "place_of_worship",
    "denomination": "catholic",
    "name": "St.Mary's Church , Mevada",
    "religion": "christian"
  }
},
{
  "type": "node",
  "id": 5799474427,
  "lat": 9.5292788,
  "lon": 76.3207717,
  "tags": {
    "amenity": "school",
    "name": "Mary Immaculate HS"
  }
},
{
  "type": "node",
  "id": 5857679008,
  "lat": 9.7070017,
  "lon": 76.3255660,
  "tags": {
    "amenity": "school"
  }
},
{
  "type": "node",
  "id": 5860850488,
  "lat": 9.6795349,
  "lon": 76.3263753,
  "tags": {
    "amenity": "community_centre",
    "name": "St. Martin Parish Hall",
    "opening_hours": "\"Will be open upon appointment\""
  }
},
{
  "type": "node",
  "id": 5866000436,
  "lat": 9.3785208,
  "lon": 76.5662272,
  "tags": {
    "addr:block": "Thiruvalla",
    "addr:district": "Pathanamthitta",
    "addr:postcode": "689101",
    "addr:village": "Thiruvalla",
    "amenity": "school",
    "name": "D I E T Upper Primary School Thiruvalla",
    "operator": "Department of education",
    "operator:type": "government"
  }
},
{
  "type": "node",
  "id": 5882223202,
  "lat": 9.5681470,
  "lon": 76.5286865,
  "tags": {
    "amenity": "place_of_worship",
    "name": "Kuttik",
    "name:en": "Kuttikattu Devi Temple"
  }
},
{
  "type": "node",
  "id": 5907040154,
  "lat": 9.2758147,
  "lon": 76.5872542,
  "tags": {
    "amenity": "place_of_worship",
    "name": "CHURCH",
    "religion": "christian"
  }
},
{
  "type": "node",
  "id": 5919903059,
  "lat": 9.3802885,
  "lon": 76.5715741,
  "tags": {
    "addr:city": "Thiruvalla",
    "addr:housenumber": "Near DYSP Office",
    "addr:postcode": "689101",
    "addr:street": "Kulakkad Road",
    "amenity": "clinic",
    "email": "drmathewvinod@gmail.com",
    "healthcare": "dentist",
    "healthcare:speciality": "general;RCT;crown_bridge;implants;cosmetic_dental_treatments;surgical_treatments;smile_designs;orthodontic_treatments;invicible_aligners;teeth_whitening;full_mouth_rehabilitations;preventive_treatments",
    "name": "Mulamoottil Dental Clinic",
    "opening_hours": "Mo-Sa 14:30-19:00",
    "operator": "Dr Vinod Mathew Mulamoottil",
    "payment:american_express": "yes",
    "payment:cash": "yes",
    "payment:credit_cards": "yes",
    "payment:debit_cards": "yes",
    "payment:mastercard": "yes",
    "payment:visa": "yes",
    "phone": "+91-9447219903",
    "start_date": "1995",
    "website": "http://www.dentalmulamoottil.com"
  }
},
{
  "type": "node",
  "id": 6005617173,
  "lat": 9.3617128,
  "lon": 76.4879244,
  "tags": {
    "amenity": "school",
    "name": "ASM School",
    "operator": "Dr.Kwame"
  }
},
{
  "type": "node",
  "id": 6030091148,
  "lat": 9.4624471,
  "lon": 76.5482115,
  "tags": {
    "amenity": "college",
    "name": "Kristu Jyothi College",
    "operator:type": "private"
  }
},
{
  "type": "node",
  "id": 6030103465,
  "lat": 9.2246697,
  "lon": 76.6707135,
  "tags": {
    "amenity": "place_of_worship"
  }
},
{
  "type": "node",
  "id": 6030219346,
  "lat": 9.4771513,
  "lon": 76.5371655,
  "tags": {
    "amenity": "school"
  }
},
{
  "type": "node",
  "id": 6061709127,
  "lat": 9.2793457,
  "lon": 76.5863382,
  "tags": {
    "amenity": "place_of_worship",
    "name": "PALLIMEDA PARISH HALL",
    "religion": "christian"
  }
},
{
  "type": "node",
  "id": 6061709134,
  "lat": 9.2792664,
  "lon": 76.5864097,
  "tags": {
    "amenity": "place_of_worship",
    "name": "Lourdes Roman Catholic Latin Church",
    "religion": "christian"
  }
},
{
  "type": "node",
  "id": 6062034298,
  "lat": 9.2775227,
  "lon": 76.5843398,
  "tags": {
    "amenity": "school",
    "name": "DBHSS CHERIYANAD OLD BUILDING"
  }
},
{
  "type": "node",
  "id": 6081618312,
  "lat": 9.3672527,
  "lon": 76.5844555,
  "tags": {
    "amenity": "community_centre",
    "name": "thirumoolapuram community hall"
  }
},
{
  "type": "node",
  "id": 6093208916,
  "lat": 9.3665564,
  "lon": 76.5447903,
  "tags": {
    "addr:city": "PODIYADI",
    "addr:housenumber": "Porunnanarkavu Ayyappa Temple",
    "addr:postcode": "689110",
    "addr:street": "Ambalapuzha-Thiruvalla Highway",
    "amenity": "place_of_worship",
    "name": "Porunnanarkavu Ayyappa Temple",
    "religion": "hindu"
  }
},
{
  "type": "node",
  "id": 6230829008,
  "lat": 9.6097640,
  "lon": 76.5186948,
  "tags": {
    "amenity": "place_of_worship",
    "denomination": "catholic",
    "name": "St. george Kanaya Church",
    "religion": "christian"
  }
},
{
  "type": "node",
  "id": 6230890427,
  "lat": 9.6175224,
  "lon": 76.5327169,
  "tags": {
    "amenity": "place_of_worship",
    "name": "chapel",
    "religion": "christian"
  }
},
{
  "type": "node",
  "id": 6233753674,
  "lat": 9.6137059,
  "lon": 76.5282726,
  "tags": {
    "amenity": "place_of_worship",
    "name": "St.Benedict chapel",
    "religion": "christian"
  }
},
{
  "type": "node",
  "id": 6233799655,
  "lat": 9.6119005,
  "lon": 76.5313540,
  "tags": {
    "amenity": "place_of_worship",
    "name": "Mount Carmel Roman Catholic Church",
    "religion": "christian"
  }
},
{
  "type": "node",
  "id": 6237476486,
  "lat": 9.5752302,
  "lon": 76.4347033,
  "tags": {
    "amenity": "place_of_worship",
    "name": "IPC Shalom"
  }
},
{
  "type": "node",
  "id": 6237476495,
  "lat": 9.5920923,
  "lon": 76.4387525,
  "tags": {
    "amenity": "place_of_worship",
    "name": "Guru Mandiram",
    "religion": "hindu"
  }
},
{
  "type": "node",
  "id": 6259637655,
  "lat": 9.5770461,
  "lon": 76.5672965,
  "tags": {
    "amenity": "place_of_worship",
    "denomination": "marthoma",
    "name": "St. Marys Marthoma Church, Rubber board",
    "religion": "christian",
    "service_times": "8.30-10.30"
  }
},
{
  "type": "node",
  "id": 6269150610,
  "lat": 9.6579408,
  "lon": 76.7278563,
  "tags": {
    "addr:city": "Vilakkumadom",
    "addr:postcode": "686577",
    "addr:street": "Paika - Pinnakkanad Road",
    "amenity": "place_of_worship",
    "denomination": "roman_catholic",
    "name": "CMC Convent Vilakkumadom",
    "religion": "christian"
  }
},
{
  "type": "node",
  "id": 6269154157,
  "lat": 9.6574752,
  "lon": 76.7279138,
  "tags": {
    "amenity": "school",
    "name": "St. Thresia's U P School Vilakkumadom",
    "wikidata": "Q87658883"
  }
},
{
  "type": "node",
  "id": 6269155066,
  "lat": 9.6593413,
  "lon": 76.7290429,
  "tags": {
    "addr:street": "bharananganam - Vilakkumadom Road",
    "amenity": "place_of_worship",
    "denomination": "roman_catholic",
    "name": "St. Xavier's Church Vilakkumadom",
    "religion": "christian",
    "service_times": "Always Open"
  }
},
{
  "type": "node",
  "id": 6284344863,
  "lat": 9.6146866,
  "lon": 76.5163679,
  "tags": {
    "amenity": "college",
    "name": "Mahalma  Gandhi University school of Social Science"
  }
},
{
  "type": "node",
  "id": 6284356967,
  "lat": 9.6125405,
  "lon": 76.5161264,
  "tags": {
    "amenity": "place_of_worship",
    "denomination": "roman_catholic",
    "name": "St.Sebastian roman catholic church",
    "religion": "christian"
  }
},
{
  "type": "node",
  "id": 6286140383,
  "lat": 9.5980128,
  "lon": 76.4716900,
  "tags": {
    "amenity": "place_of_worship",
    "denomination": "catholic",
    "name": "Good Sheperd knanaya malankara Catholic church",
    "religion": "christian"
  }
},
{
  "type": "node",
  "id": 6296945260,
  "lat": 9.2510843,
  "lon": 76.4511182,
  "tags": {
    "amenity": "hospital",
    "healthcare": "hospital",
    "name": "Chingoli Ayurveda Hospital And Research Centre"
  }
},
{
  "type": "node",
  "id": 6332470943,
  "lat": 9.5991422,
  "lon": 76.5165145,
  "tags": {
    "amenity": "place_of_worship",
    "description": "cms school chapple",
    "name": "Chapel",
    "religion": "christian"
  }
},
{
  "type": "node",
  "id": 6354439049,
  "lat": 9.5673702,
  "lon": 76.5745223,
  "tags": {
    "amenity": "place_of_worship",
    "name": "St. Thomas Evangelical Church of India",
    "religion": "christian"
  }
},
{
  "type": "node",
  "id": 6354454939,
  "lat": 9.5831675,
  "lon": 76.5881119,
  "tags": {
    "amenity": "place_of_worship",
    "name": "Mar Gregorious Chapel"
  }
},
{
  "type": "node",
  "id": 6358482288,
  "lat": 9.4559604,
  "lon": 76.6376107,
  "tags": {
    "addr:street": "mallappally",
    "amenity": "community_centre",
    "community_centre": "parish_hall",
    "name": "Sehion Marthoma Church Parish Hall"
  }
},
{
  "type": "node",
  "id": 6367483412,
  "lat": 9.4383537,
  "lon": 76.4650635,
  "tags": {
    "amenity": "place_of_worship",
    "name": "St. Xavier’s Church, Veliyanadu",
    "religion": "christian"
  }
},
{
  "type": "node",
  "id": 6371622960,
  "lat": 9.3171885,
  "lon": 76.6179167,
  "tags": {
    "amenity": "community_centre",
    "name": "seminar hall"
  }
},
{
  "type": "node",
  "id": 6376110767,
  "lat": 9.2412860,
  "lon": 76.6728293,
  "tags": {
    "addr:street": "MC Road",
    "amenity": "hospital",
    "healthcare": "hospital",
    "name": "Medical Trust"
  }
},
{
  "type": "node",
  "id": 6564209457,
  "lat": 9.5867490,
  "lon": 76.5479602,
  "tags": {
    "amenity": "place_of_worship",
    "name": "Pentecostal Mission Church",
    "religion": "christian"
  }
},
{
  "type": "node",
  "id": 6649333227,
  "lat": 9.6949600,
  "lon": 76.4227132,
  "tags": {
    "amenity": "place_of_worship",
    "name": "Thrippokudam Mahadeva Temple",
    "religion": "hindu"
  }
},
{
  "type": "node",
  "id": 6741648108,
  "lat": 9.5173925,
  "lon": 76.7137263,
  "tags": {
    "amenity": "place_of_worship",
    "building": "church",
    "denomination": "catholic",
    "name": "St. Mary's Church Kadayanikkad",
    "opening_hours": "Mo-Su 08:00-18:00; Apr 10-15 off; Jun 08:00-14:00; Aug off; Dec 25 off",
    "religion": "christian",
    "wheelchair": "limited"
  }
},
{
  "type": "node",
  "id": 6884294848,
  "lat": 9.5089982,
  "lon": 76.6648749,
  "tags": {
    "addr:city": "Nedumkunnam",
    "addr:postcode": "686542",
    "addr:street": "Karukachal - Manimala Road",
    "amenity": "place_of_worship",
    "name": "sree Bhadrakali Temple Nedumkunnam",
    "religion": "hindu"
  }
},
{
  "type": "node",
  "id": 6884298395,
  "lat": 9.5060199,
  "lon": 76.6567189,
  "tags": {
    "addr:postcode": "686 542",
    "addr:street": "Karukachal - Manimala Road",
    "amenity": "place_of_worship",
    "denomination": "catholic",
    "name": "St. John the Baptist Forane Church",
    "religion": "christian"
  }
},
{
  "type": "node",
  "id": 6884338298,
  "lat": 9.5048717,
  "lon": 76.6571490,
  "tags": {
    "addr:postcode": "686 542",
    "addr:street": "Karukachal - Manimala Road",
    "amenity": "school",
    "name": "St John the Baptist Higher Secondary School"
  }
},
{
  "type": "node",
  "id": 6893186308,
  "lat": 9.1931198,
  "lon": 76.5161436,
  "tags": {
    "amenity": "school"
  }
},
{
  "type": "node",
  "id": 6897361380,
  "lat": 9.4108715,
  "lon": 76.5852611,
  "tags": {
    "amenity": "place_of_worship",
    "name": "Padappad Sree Devi Temple",
    "religion": "hindu"
  }
},
{
  "type": "node",
  "id": 6897394264,
  "lat": 9.3817480,
  "lon": 76.7142208,
  "tags": {
    "amenity": "place_of_worship",
    "name": "St.Agnes Catholicate Church",
    "religion": "christian"
  }
},
{
  "type": "node",
  "id": 6897407169,
  "lat": 9.5670781,
  "lon": 76.7102600,
  "tags": {
    "addr:city": "vazhoor",
    "addr:housenumber": "csi church",
    "addr:postcode": "686504",
    "addr:street": "NH220",
    "amenity": "place_of_worship",
    "denomination": "csi",
    "name": "csi church vazhoor",
    "religion": "christian"
  }
},
{
  "type": "node",
  "id": 6897444508,
  "lat": 9.3343722,
  "lon": 76.6924048,
  "tags": {
    "amenity": "place_of_worship",
    "denomination": "orthodox",
    "name": "Maramon Marthamariyam Orthodox Pazhaya Suriyani Pally",
    "religion": "christian",
    "service_times": "Sunday 06; 30 -10; 00"
  }
},
{
  "type": "node",
  "id": 6897448618,
  "lat": 9.3387925,
  "lon": 76.7021246,
  "tags": {
    "amenity": "hospital",
    "healthcare": "hospital",
    "healthcare:speciality": "ophthalmology",
    "name": "Puthuoorans Eye Care"
  }
},
{
  "type": "node",
  "id": 6897468592,
  "lat": 9.6417514,
  "lon": 76.6422343,
  "tags": {
    "amenity": "college",
    "name": "model polytechnic college mattakkara"
  }
},
{
  "type": "node",
  "id": 6897630818,
  "lat": 9.3914187,
  "lon": 76.6705879,
  "tags": {
    "amenity": "place_of_worship",
    "check_date": "2025-12-19",
    "denomination": "marthoma",
    "name": "vellara ebenezer marthoma church",
    "religion": "christian"
  }
},
{
  "type": "node",
  "id": 6897633326,
  "lat": 9.3369232,
  "lon": 76.7071649,
  "tags": {
    "addr:district": "Pathanamthitta",
    "addr:full": "Kozhencherry",
    "addr:postcode": "689647",
    "addr:state": "Kerala",
    "amenity": "hospital",
    "healthcare": "hospice",
    "name": "Mulamoottil Eye Hospital",
    "source": "OpenGovernmentData"
  }
},
{
  "type": "node",
  "id": 6897664305,
  "lat": 9.3847713,
  "lon": 76.5347003,
  "tags": {
    "amenity": "place_of_worship",
    "name": "parumala thirumeni",
    "religion": "christian"
  }
},
{
  "type": "node",
  "id": 6897681492,
  "lat": 9.3364010,
  "lon": 76.7127160,
  "tags": {
    "amenity": "place_of_worship",
    "name": "St.Mathews Orthodox Syrian Valiyapally",
    "religion": "christian"
  }
},
{
  "type": "node",
  "id": 6897765552,
  "lat": 9.3374027,
  "lon": 76.7126841,
  "tags": {
    "amenity": "place_of_worship",
    "name": "Ayyappa Temple",
    "religion": "hindu"
  }
},
{
  "type": "node",
  "id": 6897765567,
  "lat": 9.3241619,
  "lon": 76.7329275,
  "tags": {
    "amenity": "place_of_worship",
    "name": "St:Mary's Malankara Catholic Church",
    "religion": "christian"
  }
},
{
  "type": "node",
  "id": 6897765568,
  "lat": 9.3228403,
  "lon": 76.7318251,
  "tags": {
    "amenity": "place_of_worship",
    "name": "St. Osio's Orthodox Church",
    "religion": "christian"
  }
},
{
  "type": "node",
  "id": 6897765569,
  "lat": 9.3214372,
  "lon": 76.7319395,
  "tags": {
    "amenity": "school",
    "name": "School Ground"
  }
},